{"version": 0.6, "generator": "Overpass API 0.7.57 93a4d346", "osm3s": {"timestamp_osm_base": "2022-05-16T10:40:10Z", "copyright": "The data included in this document is from www.openstreetmap.org. The data is made available under ODbL."}, "elements": [{"type": "node", "id": 24971137, "lat": 55.6902172, "lon": 12.5639074, "tags": {"amenity": "restaurant", "cuisine": "regional", "fvst:navnelbnr": "114128", "microbrewery": "yes", "name": "N\u00f8rrebro Bryghus Restaurant", "opening_hours": "Mo-Th 12:00-15:00,17:30-22:00; Fr-Sa 12:00-15:00,17:30-23:00", "phone": "+45 35300530", "ref:DK:cvr": "26882451", "ref:DK:cvr:pnummer": "1013398050", "website": "https://noerrebrobryghus.dk/", "wheelchair": "yes", "wheelchair:description": "Adgang via elevator gennem port. Ingen armst\u00f8tte ved toilet", "wikidata": "Q7071526", "wikipedia": "da:N\u00f8rrebro Bryghus"}}, {"type": "node", "id": 137534794, "lat": 55.6742501, "lon": 12.5730625, "tags": {"amenity": "restaurant", "cuisine": "steak", "fvst:navnelbnr": "112944", "name": "Rio Bravo", "opening_hours": "Mo-Sa 11:30-05:00,Su 17:00-05:00", "phone": "+45 33117587", "ref:DK:cvr": "10249589", "ref:DK:cvr:pnummer": "1000043019", "website": "https://www.riobravo.dk/"}}, {"type": "node", "id": 279143638, "lat": 55.6856353, "lon": 12.5376527, "tags": {"amenity": "restaurant", "cuisine": "north_vietnamese", "fvst:navnelbnr": "115050", "name": "Viet Nam Nam", "opening_hours": "16:00-23:00", "ref:DK:cvr": "54395957", "ref:DK:cvr:pnummer": "1014630240", "website": "http://www.viet-namnam.dk/", "wheelchair": "no"}}, {"type": "node", "id": 279183730, "lat": 55.7050842, "lon": 12.5768017, "tags": {"amenity": "restaurant", "description": "hunde velkomne i pavillionen", "diet:vegan": "yes", "diet:vegetarian": "yes", "dog": "yes", "fvst:navnelbnr": "114666", "indoor_seating": "yes", "name": "Kafe Kapers", "opening_hours": "Su-Th 09:00-24:00; Fr-Sa 09:00-01:00", "outdoor_seating": "yes", "phone": "+45 35251120", "ref:DK:cvr": "29180849", "ref:DK:cvr:pnummer": "1009394342", "smoking": "outside", "website": "https://www.kafekapers.dk/", "wheelchair": "yes"}}, {"type": "node", "id": 279199290, "lat": 55.6722759, "lon": 12.5690757, "tags": {"amenity": "restaurant", "brand": "Wagamama", "brand:wikidata": "Q503715", "brand:wikipedia": "en:Wagamama", "check_date:diet:vegetarian": "2021-12-12", "cuisine": "asian", "diet:vegan": "yes", "diet:vegetarian": "yes", "fvst:navnelbnr": "115075", "name": "Wagamama", "opening_hours": "Su-Th 12:00-21:00; Fr-Sa 12:00-22:00", "phone": "+45 33750658", "ref:DK:cvr": "10404916", "ref:DK:cvr:pnummer": "1019479249", "takeaway": "yes", "website": "https://www.wagamama.dk/restauranter/tivoli", "wheelchair": "yes"}}, {"type": "node", "id": 279472282, "lat": 55.6765807, "lon": 12.5718891, "tags": {"amenity": "restaurant", "cuisine": "italian", "fvst:navnelbnr": "535182", "name": "Il Ponte", "opening_hours": "16:00-23:00", "phone": "+45 33136463", "ref:DK:cvr": "24991024", "ref:DK:cvr:pnummer": "1018830457", "website": "http://www.ilponteitaliano.dk/"}}, {"type": "node", "id": 279472358, "lat": 55.6797762, "lon": 12.5754143, "tags": {"amenity": "restaurant", "fvst:navnelbnr": "113033", "name": "Wining & Dining", "opening_hours": "17:30-24:00", "opening_hours:kitchen": "17:30-22:30", "operator": "Le Pave", "phone": "+45 33129686", "website": "http://www.wininganddining.dk/"}}, {"type": "node", "id": 279472775, "lat": 55.679433, "lon": 12.575349, "tags": {"amenity": "restaurant", "cuisine": "italian", "fvst:name": "Restaurationsselskabet Gr\u00e5br\u00f8dre Torv 21 ApS", "fvst:navnelbnr": "902693", "name": "Ristorante Amalfi", "opening_hours": "11:00-24:00", "outdoor_seating": "yes", "phone": "+45 33114707", "ref:DK:cvr": "40354069", "ref:DK:cvr:pnummer": "1024521539", "website": "http://www.restaurantamalfi.dk/"}}, {"type": "node", "id": 279472884, "lat": 55.6796537, "lon": 12.5759776, "tags": {"amenity": "restaurant", "cuisine": "regional", "fvst:navnelbnr": "113720", "name": "Peder Oxe", "opening_hours": "Su-We 10:00-23:30; Th-Sa 10:00-24:00", "phone": "+45 33110077", "ref:DK:cvr": "26119243", "ref:DK:cvr:pnummer": "1003206635", "website": "https://www.pederoxe.dk/"}}, {"type": "node", "id": 279472912, "lat": 55.6795485, "lon": 12.575953, "tags": {"amenity": "restaurant", "cuisine": "regional", "fvst:navnelbnr": "113721", "name": "B\u00f8f & Ost", "opening_hours": "10:00-22:30", "phone": "+45 33119911", "ref:DK:cvr": "26119243", "ref:DK:cvr:pnummer": "1004081354", "website": "https://boef-ost.dk/"}}, {"type": "node", "id": 279473881, "lat": 55.6807127, "lon": 12.5832761, "tags": {"amenity": "restaurant", "fvst:navnelbnr": "114779", "name": "Cafe Victor", "opening_hours": "Mo-Th 11:30-16:00,18:00-22:00; Fr-Sa 11:30-16:00,18:00-23:00; Su 11:30-16:00,18:00-22:30", "opening_hours:cafe": "Mo-We 08:00-01:00, Th-Fr 08:00-02:00, Sa 09:00-02:00, Su 11:00-24:00", "phone": "+45 3313 3613", "ref:DK:cvr": "27977235", "ref:DK:cvr:pnummer": "1013573081", "website": "http://cafevictor.dk/en/", "wheelchair": "limited"}}, {"type": "node", "id": 279474368, "lat": 55.6803781, "lon": 12.5804521, "tags": {"amenity": "restaurant", "fvst:navnelbnr": "119420", "name": "Madklubben Grill", "opening_hours": "Mo-Sa 17:00-24:00", "opening_hours:kitchen": "Mo-Sa 17:00-22:00", "phone": "+45 33133334", "ref:DK:cvr": "32562191", "ref:DK:cvr:pnummer": "1016601647", "smoking": "no", "website": "https://madklubben.dk/grill-koebenhavn/", "wheelchair": "limited"}}, {"type": "node", "id": 279474458, "lat": 55.6809107, "lon": 12.5824969, "tags": {"amenity": "restaurant", "cuisine": "italian", "fvst:name": "LAVECCHIA SIGNORA GIULIA APS", "fvst:navnelbnr": "112385", "name": "La Vecchia Signora", "opening_hours": "12:00-23:00", "outdoor_seating": "yes", "phone": "+45 33160048", "ref:DK:cvr": "19506770", "ref:DK:cvr:pnummer": "1001058329", "smoking": "no", "website": "http://www.la-vecchia-signora.dk/", "wheelchair": "no"}}, {"type": "node", "id": 279474704, "lat": 55.6807191, "lon": 12.5828713, "tags": {"amenity": "restaurant", "cuisine": "french", "fvst:navnelbnr": "119706", "name": "L'Alsace", "opening_hours": "Mo-Sa 11:30-24:00, PH off", "outdoor_seating": "yes", "phone": "+45 33145743", "ref:DK:cvr": "30498402", "ref:DK:cvr:pnummer": "1013191448", "smoking": "no", "website": "https://www.alsace.dk/", "wheelchair": "no"}}, {"type": "node", "id": 279475627, "lat": 55.6790105, "lon": 12.5805759, "tags": {"amenity": "restaurant", "fvst:name": "Mama Rosa / Americas Grill", "fvst:navnelbnr": "115449", "name": "Mama Rosa", "opening_hours": "09:00-24:00", "phone": "+45 33938082", "ref:DK:cvr": "21350370", "ref:DK:cvr:pnummer": "1003566427", "takeaway": "yes", "website": "http://www.mamarosa.com/", "wheelchair": "limited"}}, {"type": "node", "id": 280465638, "lat": 55.6763037, "lon": 12.5644933, "tags": {"amenity": "restaurant", "branch": "Axeltorv", "brand": "Jensens B\u00f8fhus", "cuisine": "steak", "fvst:navnelbnr": "112950", "name": "Jensen's B\u00f8fhus Axeltorv", "opening_hours": "Mo-Th 11:00-22:30; Fr-Sa 09:00-24:00; Su 09:00-22:30; 11:00-22:30; Fr-Sa 11:00-24:00", "phone": "+45 70304050", "ref:DK:cvr": "13212538", "ref:DK:cvr:pnummer": "1003192645", "website": "https://www.jensens.com/restaurant/koebenhavn-axeltorv/", "wheelchair": "no"}}, {"type": "node", "id": 280466297, "lat": 55.6778757, "lon": 12.5695321, "tags": {"amenity": "restaurant", "cuisine": "galette", "fvst:navnelbnr": "111223", "name": "La Galette", "opening_hours": "Mo-Sa 12:00-16:00,17:30-22:00; Su 13:00-22:00", "phone": "+45 33323790", "ref:DK:cvr": "25092678", "ref:DK:cvr:pnummer": "1007299229", "smoking": "no", "website": "http://www.lagalette.dk/", "wheelchair": "yes"}}, {"type": "node", "id": 280466425, "lat": 55.678228, "lon": 12.569743, "tags": {"amenity": "restaurant", "cuisine": "french", "fvst:navnelbnr": "115940", "name": "L'education Nationale", "opening_hours": "11:30-24:00", "opening_hours:kitchen": "11:30-22:00; Su 11:30-21:00", "phone": "+45 33915360", "ref:DK:cvr": "27344607", "ref:DK:cvr:pnummer": "1010097025", "smoking": "no", "website": "https://www.leducation.dk/", "wheelchair": "no"}}, {"type": "node", "id": 280466677, "lat": 55.6781715, "lon": 12.5680739, "tags": {"amenity": "restaurant", "cuisine": "balcan", "fvst:navnelbnr": "117884", "name": "Dubrovnik", "opening_hours": "17:00-24:00", "opening_hours:kitchen": "17:00-23:00", "phone": "+45 33130564", "ref:DK:cvr": "29593841", "ref:DK:cvr:pnummer": "1004949261", "takeaway": "yes", "website": "http://restaurant-dubrovnik.dk/"}}, {"type": "node", "id": 280530930, "lat": 55.6733149, "lon": 12.5616617, "tags": {"amenity": "restaurant", "cuisine": "steak", "fvst:navnelbnr": "112055", "name": "Jensen's B\u00f8fhus", "opening_hours": "08:00-24:00", "phone": "+45 63134516", "ref:DK:cvr": "13212538", "ref:DK:cvr:pnummer": "1004067419", "website": "https://www.jensens.com/restaurant/koebenhavn-vesterbrogade/", "wheelchair": "yes"}}, {"type": "node", "id": 280679974, "lat": 55.6777413, "lon": 12.5785538, "tags": {"amenity": "restaurant", "cuisine": "seafood", "fvst:navnelbnr": "573483", "name": "Krog's Fiskerestaurant", "opening_hours": "\"lunch and dinner\"", "phone": "+45 33158915", "ref:DK:cvr": "37115320", "ref:DK:cvr:pnummer": "1020764321", "website": "http://krogs.dk/", "wikidata": "Q21936680"}}, {"type": "node", "id": 280790034, "lat": 55.6811269, "lon": 12.5741096, "tags": {"amenity": "restaurant", "cuisine": "turkish", "fvst:navnelbnr": "668474", "name": "Ankara", "opening_hours": "11:00-24:00; Su,PH 13:00-24:00", "phone": "+45 33151915", "ref:DK:cvr": "26938635", "ref:DK:cvr:pnummer": "1016897252", "website": "https://ankaracity.dk/"}}, {"type": "node", "id": 280790085, "lat": 55.6793725, "lon": 12.5752015, "tags": {"amenity": "restaurant", "cuisine": "international", "fvst:navnelbnr": "112668", "name": "Eros", "opening_hours": "Tu-Fr,Su 16:00-23:00; Sa 13:00-23:00", "phone": "+45 33134076", "ref:DK:cvr": "19130983", "ref:DK:cvr:pnummer": "1003691220", "website": "https://www.erosrestaurantdk.com/"}}, {"type": "node", "id": 280790327, "lat": 55.6791314, "lon": 12.573758, "tags": {"amenity": "restaurant", "cuisine": "international", "fvst:navnelbnr": "112270", "name": "Nova", "opening_hours": "11:00-24:00", "outdoor_seating": "yes", "phone": "+45 33111249", "ref:DK:cvr": "21350206", "ref:DK:cvr:pnummer": "1005209801", "website": "http://restaurantnova.com/"}}, {"type": "node", "id": 280790408, "lat": 55.6787069, "lon": 12.5727364, "tags": {"amenity": "restaurant", "cuisine": "indian", "fvst:name": "Shahi Indisk Restaurant", "fvst:navnelbnr": "117674", "name": "Shahi", "opening_hours": "mo-th 16:00-24:00; fr-sa 12:00-24:00; su 17:00-24:00", "phone": "+45 33126272", "ref:DK:cvr": "32169597", "ref:DK:cvr:pnummer": "1015321039", "website": "http://www.shahirestaurant.dk"}}, {"type": "node", "id": 280955740, "lat": 55.7089635, "lon": 12.5754032, "tags": {"amenity": "restaurant", "fvst:navnelbnr": "113277", "name": "Hong Cheng", "opening_hours": "13:00-23:00", "phone": "+45 39291758", "ref:DK:cvr": "21296996", "ref:DK:cvr:pnummer": "1009571368", "website": "https://hongcheng.dk/", "wheelchair": "limited"}}, {"type": "node", "id": 281002969, "lat": 55.690498, "lon": 12.5441844, "tags": {"amenity": "restaurant", "cuisine": "turkish", "fvst:name": "Safir House", "fvst:navnelbnr": "734564", "name": "Safir Kebab", "opening_hours": "Mo-Fr 11:00-24:00; Sa-Su 12:00-24:00", "phone": "+45 35343470", "ref:DK:cvr": "38328220", "ref:DK:cvr:pnummer": "1022088994", "source": "survey", "wheelchair": "limited"}}, {"type": "node", "id": 281063870, "lat": 55.6809684, "lon": 12.5878215, "tags": {"amenity": "restaurant", "fvst:navnelbnr": "111793", "name": "Els", "opening_hours": "12:00-22:30", "outdoor_seating": "yes", "phone": "+45 33141341", "ref:DK:cvr": "10133696", "ref:DK:cvr:pnummer": "1000939213", "reservation": "yes", "smoking": "no", "toilets": "yes", "website": "http://www.restaurant-els.dk/", "wheelchair": "limited"}}, {"type": "node", "id": 281063912, "lat": 55.6809061, "lon": 12.5883161, "tags": {"amenity": "restaurant", "cuisine": "danish", "dinner": "yes", "fvst:navnelbnr": "912492", "lunch": "yes", "name": "Zeleste", "opening_hours": "Mo-Su 12:00-22:00", "opening_hours:kitchen": "Mo-Th 11:30-22:00; Fr 11:30-22:30; Sa 10:30-22:30; Su 10:30-22:00", "outdoor_seating": "yes", "payment:credit_cards": "yes", "phone": "+45 33160606", "ref:DK:cvr": "40608524", "ref:DK:cvr:pnummer": "1024972816", "smoking": "no", "toilets": "yes", "website": "https://zeleste.dk/", "wheelchair": "no"}}, {"type": "node", "id": 281064392, "lat": 55.6792833, "lon": 12.5738811, "tags": {"amenity": "restaurant", "capacity": "220", "cuisine": "italian_pizza", "fvst:name": "RISTORANTE ITALIANO AF 6 MARTS 1998 APS", "fvst:navnelbnr": "112060", "name": "Italiano", "opening_hours": "11:00-24:00", "outdoor_seating": "yes", "phone": "+45 33111295", "ref:DK:cvr": "20787945", "ref:DK:cvr:pnummer": "1004505671", "website": "http://www.italiano.dk/"}}, {"type": "node", "id": 281253328, "lat": 55.6780529, "lon": 12.5803408, "tags": {"amenity": "restaurant", "cuisine": "asian", "fvst:navnelbnr": "500158", "name": "Wok On", "opening_hours": "Mo-Th 11:00-21:00; Fr-Sa 11:00-22:00; Su,PH 12:00-21:00", "phone": "+45 33323213", "ref:DK:cvr": "33956398", "ref:DK:cvr:pnummer": "1017163821", "website": "http://hojbroplads.wokon.dk/", "wheelchair": "no"}}, {"type": "node", "id": 281253382, "lat": 55.6826871, "lon": 12.5745415, "tags": {"amenity": "restaurant", "cuisine": "sm\u00f8rrebr\u00f8d", "fvst:navnelbnr": "715374", "name": "Restaurant Jacobsen", "opening_hours": "11:00-24:00; Dec 24-25 off; Jan 01 off", "opening_hours:kitchen": "11:00-22:00; Dec 24-Dec 25 off; Jan 1 off", "phone": "+45 33147099", "ref:DK:cvr": "33749880", "ref:DK:cvr:pnummer": "1016915250", "website": "http://restaurant-jacobsen.dk/", "wheelchair": "yes"}}, {"type": "node", "id": 281254516, "lat": 55.6772838, "lon": 12.5769463, "tags": {"amenity": "restaurant", "award:michelin": "bib_gourmand", "contact:instagram": "https://www.instagram.com/marvogben/", "cuisine": "scandinavian", "dinner": "yes", "email": "reservation@marvogben.dk", "facebook": "https://www.facebook.com/marvben/", "fvst:navnelbnr": "788694", "name": "Marv & Ben", "opening_hours": "Tu-Sa 18:00-24:00", "opening_hours:kitchen": "Tu-Sa 18:00-22:00", "payment:credit_cards": "yes", "phone": "+4533910191", "ref:DK:cvr": "39879530", "ref:DK:cvr:pnummer": "1023974815", "reservation": "yes", "toilets": "yes", "website": "https://www.marvogben.dk"}}, {"type": "node", "id": 281255578, "lat": 55.6719106, "lon": 12.5562393, "tags": {"amenity": "restaurant", "fvst:name": "Restaurant LB", "fvst:navnelbnr": "770910", "name": "Le Basilic", "opening_hours": "Tu-Sa 17:30-22:30; Fr-Sa 12:00-15:00, 17:30-22:30", "phone": "+45 33318305", "ref:DK:cvr": "38796070", "ref:DK:cvr:pnummer": "1022664049", "url": "https://www.le-basilic.dk/", "wheelchair": "no"}}, {"type": "node", "id": 281539304, "lat": 55.6770342, "lon": 12.5703318, "tags": {"amenity": "restaurant", "cuisine": "chinese_buffet", "fvst:navnelbnr": "111278", "name": "Beijing", "opening_hours": "11:00-22:00", "phone": "+45 33111205", "ref:DK:cvr": "66082717", "ref:DK:cvr:pnummer": "1002224766", "website": "http://www.restaurantbeijing.dk/"}}, {"type": "node", "id": 281541027, "lat": 55.6733045, "lon": 12.5596734, "tags": {"amenity": "restaurant", "fvst:navnelbnr": "118046", "name": "Flora's Steakhouse", "opening_hours": "Su-Th 11:30-22:00; Fr-Sa 11:30-22:30", "phone": "+45 33230902", "ref:DK:cvr": "29201625", "ref:DK:cvr:pnummer": "1011887844", "website": "https://www.floras.dk/", "wheelchair": "no"}}, {"type": "node", "id": 281541738, "lat": 55.6732568, "lon": 12.5452292, "tags": {"amenity": "restaurant", "cuisine": "mexican", "facebook": "https://www.facebook.com/pages/La-Fiesta-Mexicana/132926343435134", "fvst:navnelbnr": "118114", "name": "La Fiesta Mexicana", "opening_hours": "17:00-01:00", "outdoor_seating": "yes", "payment:credit_cards": "yes", "phone": "+45 33217750", "ref:DK:cvr": "18803879", "ref:DK:cvr:pnummer": "1014807388", "takeaway": "yes", "toilets": "yes", "website": "https://www.lafiestamexicana.dk/", "wheelchair": "no"}}, {"type": "node", "id": 281544325, "lat": 55.6843632, "lon": 12.5515978, "tags": {"amenity": "restaurant", "cuisine": "greek", "fvst:navnelbnr": "112075", "name": "Akropolis", "opening_hours": "Mo,Th,Sa 16:00-01:00, Sa-Su 16:00-05:00", "ref:DK:cvr": "36065656", "ref:DK:cvr:pnummer": "1001741265", "website": "http://www.restaurant-akropolis.dk/"}}, {"type": "node", "id": 281544394, "lat": 55.6841005, "lon": 12.5514227, "tags": {"amenity": "restaurant", "cuisine": "sushi", "fvst:name": "SAKURA", "fvst:navnelbnr": "117073", "name": "Nyu Sakura", "opening_hours": "12:00-22:00", "phone": "+45 3536 5757", "ref:DK:cvr": "29942196", "ref:DK:cvr:pnummer": "1012701876", "takeaway": "yes", "website": "https://www.nyu-sakura.dk/"}}, {"type": "node", "id": 281787039, "lat": 55.6819882, "lon": 12.5543323, "tags": {"amenity": "restaurant", "cuisine": "danish", "fvst:navnelbnr": "130223", "name": "Radio", "opening_hours": "Tu-Sa 17:30-24:00; Fr-Sa 12:00-15:00,17:30-24:00", "phone": "+45 25102733", "ref:DK:cvr": "33862679", "ref:DK:cvr:pnummer": "1017025208", "website": "https://restaurantradio.dk/"}}, {"type": "node", "id": 281788003, "lat": 55.67721, "lon": 12.5736687, "tags": {"amenity": "restaurant", "fvst:navnelbnr": "114838", "name": "Nytorv", "note": "opening hours for kitchen", "opening_hours": "08:00-22:00; Dec 24 off; Dec 31 08:00-16:30", "phone": "+45 33117706", "ref:DK:cvr": "25640578", "ref:DK:cvr:pnummer": "1008220138"}}, {"type": "node", "id": 281998976, "lat": 55.6873787, "lon": 12.5595118, "tags": {"amenity": "restaurant", "cuisine": "persian", "fvst:name": "Spiserestauranten Zafaran", "fvst:navnelbnr": "113842", "name": "Zafran", "opening_hours": "17:00-22:00", "phone": "+45 35349095", "ref:DK:cvr": "27895654", "ref:DK:cvr:pnummer": "1010747011", "website": "http://www.zafran.dk/"}}, {"type": "node", "id": 283194050, "lat": 55.6844442, "lon": 12.5660522, "tags": {"amenity": "restaurant", "cuisine": "tapas", "diet:vegan": "yes", "diet:vegetarian": "yes", "fvst:navnelbnr": "112736", "name": "Pintxos", "opening_hours": "17:00-23:00; Dec 23 off; Jan 1 off", "phone": "+45 33936655", "ref:DK:cvr": "26662974", "ref:DK:cvr:pnummer": "1009173664", "website": "https://pintxos.dk/", "wheelchair": "no"}}, {"type": "node", "id": 286402100, "lat": 55.6966064, "lon": 12.5807282, "tags": {"amenity": "restaurant", "cuisine": "vietnamese", "fvst:navnelbnr": "117051", "name": "Hanoi", "opening_hours": "16:00-23:00", "opening_hours:kitchen": "16:00-22:30", "phone": "+45 35 42 63 50", "ref:DK:cvr": "29678324", "ref:DK:cvr:pnummer": "1008374224", "source": "website", "website": "http://www.restauranthanoi.dk/", "wheelchair": "limited"}}, {"type": "node", "id": 286402481, "lat": 55.7034223, "lon": 12.5779306, "tags": {"amenity": "restaurant", "cuisine": "french", "diet:vegan": "no", "diet:vegetarian": "no", "fvst:navnelbnr": "111963", "indoor_seating": "yes", "name": "Le Saint Jacques", "opening_hours": "12:00-15:00,18:00-22:00; Sa 12:00-16:00,18:00-22:00; Su 12:00-15:00,17:00-22:00", "outdoor_seating": "yes", "ref:DK:cvr": "27976522", "ref:DK:cvr:pnummer": "1003506480", "smoking": "no", "website": "https://www.lesaintjacques.dk/", "wheelchair": "limited"}}, {"type": "node", "id": 286529734, "lat": 55.6818262, "lon": 12.5712029, "tags": {"amenity": "restaurant", "cuisine": "sushi", "fvst:name": "Sushi Restaurant", "fvst:navnelbnr": "111621", "name": "Sushi N\u00f8rregade", "opening_hours": "Su-We 16:00-22:00; Th-Sa 16:00-23:00", "phone": "+45 33127070", "ref:DK:cvr": "10106818", "ref:DK:cvr:pnummer": "1009641560", "website": "https://www.sushinorregade.dk/"}}, {"type": "node", "id": 286529910, "lat": 55.6841991, "lon": 12.5647608, "tags": {"amenity": "restaurant", "cuisine": "sushi", "fvst:navnelbnr": "125338", "name": "Sticks'N'Sushi", "opening_hours": "Fr-Sa 10:00-23:00; Su-Th 10:00-22:30", "phone": "+45 33111407", "ref:DK:cvr": "73342619", "ref:DK:cvr:pnummer": "1008617879"}}, {"type": "node", "id": 286530909, "lat": 55.6843897, "lon": 12.5673006, "tags": {"amenity": "restaurant", "cuisine": "indian", "diet:vegan": "yes", "diet:vegetarian": "yes", "fvst:navnelbnr": "918150", "happycow:id": "81514", "name": "Cafe Munk", "opening_hours": "Mo-Sa 11:00-23:00; Su 11:00-17:00", "ref:DK:cvr": "40531408", "ref:DK:cvr:pnummer": "1024726742", "wheelchair": "no"}}, {"type": "node", "id": 286532706, "lat": 55.6829182, "lon": 12.5854059, "tags": {"amenity": "restaurant", "cuisine": "bornholm", "dinner": "yes", "fvst:name": "Restaurant Koefoed", "fvst:navnelbnr": "119750", "lunch": "yes", "name": "Restaurant Koefoed", "note": "Opening hours are for the kitchen", "opening_hours": "12:00-15:00,17:30-21:30", "outdoor_seating": "yes", "payment:credit_cards": "yes", "phone": "+45 56482224", "ref:DK:cvr": "29637474", "ref:DK:cvr:pnummer": "1012401341", "reservation": "yes", "smoking": "no", "toilets": "yes", "website": "http://www.restaurant-koefoed.dk/", "wikidata": "Q97768054"}}, {"type": "node", "id": 286533157, "lat": 55.6823201, "lon": 12.5841755, "tags": {"amenity": "restaurant", "cuisine": "italian", "email": "info@cantinacph.dk", "fvst:navnelbnr": "653328", "name": "Cantina", "opening_hours": "Su-We 11:00-23:00; Th 11:00-01:00; Fr-Sa 11:00-02:00", "phone": "+45 88169995", "ref:DK:cvr": "37380148", "ref:DK:cvr:pnummer": "1021070560", "website": "http://cantinacph.dk/"}}, {"type": "node", "id": 287954706, "lat": 55.6759954, "lon": 12.5329407, "tags": {"amenity": "restaurant", "cuisine": "danish", "dinner": "yes", "dog": "yes", "fvst:navnelbnr": "114963", "lunch": "yes", "name": "Allegade 10", "opening_hours": "10:00-22:00", "outdoor_seating": "yes", "payment:credit_cards": "yes", "phone": "+45 33311751", "ref:DK:cvr": "15380608", "ref:DK:cvr:pnummer": "1000913563", "reservation": "yes", "toilets": "yes", "website": "http://www.allegade10.dk/", "wheelchair": "yes"}}, {"type": "node", "id": 292175138, "lat": 55.6731288, "lon": 12.5604195, "tags": {"amenity": "restaurant", "cuisine": "kebab", "fvst:name": "Kebabish DK", "fvst:navnelbnr": "927525", "name": "Kebabish", "opening_hours": "Mo-Th 11:00-24:00, Fr 11:00-02:00, Sa 12:00-02:00, Su 12:00-24:00", "phone": "+45 33226226", "ref:DK:cvr": "40833846", "ref:DK:cvr:pnummer": "1025098036", "website": "http://www.kebabish.dk/", "wheelchair": "no"}}, {"type": "node", "id": 292352715, "lat": 55.6821848, "lon": 12.5856599, "tags": {"amenity": "restaurant", "fvst:navnelbnr": "118010", "name": "Den Lille Fede", "opening_hours": "17:30-22:00; Su off", "outdoor_seating": "yes", "payment:credit_cards": "yes", "phone": "+45 33337002", "ref:DK:cvr": "30608933", "ref:DK:cvr:pnummer": "1013573510", "reservation": "yes", "website": "https://denlillefede.com/", "wheelchair": "no"}}, {"type": "node", "id": 292352764, "lat": 55.6826427, "lon": 12.5860671, "tags": {"amenity": "restaurant", "breakfast": "yes", "delivery": "yes", "dinner": "yes", "fvst:navnelbnr": "662899", "lunch": "yes", "name": "Restaurant Vita", "opening_hours": "Mo-Tu 11:30-01:00, 11:30-03:00, Fr-Sa 11:30-05:00, Su 11:30-23:00", "outdoor_seating": "yes", "payment:credit_cards": "yes", "phone": "+45 33118011", "ref:DK:cvr": "35976264", "ref:DK:cvr:pnummer": "1023679163", "reservation": "yes", "toilets": "yes", "website": "https://restaurantvita.dk/"}}, {"type": "node", "id": 292352917, "lat": 55.6827296, "lon": 12.5865208, "tags": {"amenity": "restaurant", "cuisine": "steak", "dinner": "yes", "facebook": "https://www.facebook.com/pages/Restaurant-Hereford-Steak/187765867903463", "fvst:navnelbnr": "552363", "lunch": "yes", "name": "Hereford Steak", "opening_hours": "mo-sa 12:00-23:00; su 12:00-22:00", "outdoor_seating": "yes", "payment:credit_cards": "yes", "phone": "+45 33911148", "ref:DK:cvr": "35958541", "ref:DK:cvr:pnummer": "1019727579", "reservation": "yes", "smoking": "no", "takeaway": "yes", "toilets": "yes", "website": "http://www.herefordsteak.dk/"}}, {"type": "node", "id": 292353033, "lat": 55.6841125, "lon": 12.5856999, "tags": {"amenity": "restaurant", "cuisine": "chinese", "fvst:navnelbnr": "113479", "name": "Royal Garden", "opening_hours": "Tu-Su 12:00-23:00", "opening_hours:kitchen": "Tu-Su 12:00-22:00", "phone": "+45 33151607", "ref:DK:cvr": "27017932", "ref:DK:cvr:pnummer": "1009705100", "website": "https://www.royalgarden.dk/"}}, {"type": "node", "id": 292353501, "lat": 55.6844872, "lon": 12.5876301, "tags": {"amenity": "restaurant", "cuisine": "mexican", "delivery": "yes", "dinner": "yes", "fvst:navnelbnr": "114318", "name": "El Viejo Mexico", "opening_hours": "Mo 17:00-22:00; Tu-We 17:00-23:00; Th-Sa 17:00-24:00; Su 17:00-22:00", "outdoor_seating": "yes", "payment:credit_cards": "yes", "phone": "+45 33930061", "ref:DK:cvr": "16804738", "ref:DK:cvr:pnummer": "1004089276", "takeaway": "yes", "toilets": "yes", "website": "https://www.elviejomexico.dk/"}}, {"type": "node", "id": 298078187, "lat": 55.698597, "lon": 12.5761653, "tags": {"alt_name": "Bindia Indisk Mad Take Away \u00d8sterbro", "amenity": "restaurant", "brand": "Bindia", "cuisine": "indian;chicken;sushi;asian", "delivery": "yes", "description": "Bindia is a chain of Indian food (Indisk Mad) Take Aways in \u00d8sterbro Copenhagen. Amer Sulman is the founder & head chef of Bindia. Here, we cook certified organic Indian food (30-60%) without any additives and preservatives.", "diet:halal": "yes", "diet:non-vegetarian": "yes", "diet:organic": "yes", "diet:vegan": "yes", "diet:vegetarian": "yes", "email": "office@bindia.dk", "fvst:navnelbnr": "115275", "name": "Bindia", "name:en": "Bindia Indian Food Take Away \u00d8sterbro", "opening_hours": "Mo-Su 16:00-21:00", "outdoor_seating": "yes", "phone": "+45 35438838", "ref:DK:cvr": "10132525", "ref:DK:cvr:pnummer": "1009810281", "takeaway": "yes", "website": "https://www.bindia.dk/", "wheelchair": "yes"}}, {"type": "node", "id": 298630613, "lat": 55.6846855, "lon": 12.5820711}, {"type": "node", "id": 298630614, "lat": 55.6845705, "lon": 12.5819766}, {"type": "node", "id": 298630615, "lat": 55.6845496, "lon": 12.5820564}, {"type": "node", "id": 298630616, "lat": 55.6845045, "lon": 12.5820193}, {"type": "node", "id": 298630617, "lat": 55.6844686, "lon": 12.5821566}, {"type": "node", "id": 298630618, "lat": 55.6846493, "lon": 12.5823051}, {"type": "node", "id": 298723979, "lat": 55.687174, "lon": 12.5621406, "tags": {"amenity": "restaurant", "branch": "N\u00f8rrebro", "cuisine": "burger", "fvst:navnelbnr": "1201273", "name": "Sliders", "opening_hours": "Tu-Sa 11:00-22:00; Su 11:00-21:00", "ref:DK:cvr": "42839752", "ref:DK:cvr:pnummer": "1027748518"}}, {"type": "node", "id": 298796142, "lat": 55.6726211, "lon": 12.5607845, "tags": {"amenity": "restaurant", "fvst:name": "Best Western Hotel Hebron Morgenmadsrestaurant", "fvst:navnelbnr": "110674", "name": "Hebron", "operator": "Best Western", "ref:DK:cvr": "62570318", "ref:DK:cvr:pnummer": "1002156133", "tourism": "hotel", "website": "https://www.hebron.dk/"}}, {"type": "node", "id": 300411209, "lat": 55.6822476, "lon": 12.5827205, "tags": {"amenity": "restaurant", "cuisine": "regional", "fvst:navnelbnr": "112715", "name": "Godt", "opening_hours": "Tu-Sa 18:00-24:00", "phone": "+45 33152122", "ref:DK:cvr": "17757172", "ref:DK:cvr:pnummer": "1001353524", "website": "http://www.restaurant-godt.dk/", "wheelchair": "limited", "wikidata": "Q23831010"}}, {"type": "node", "id": 312710995, "lat": 55.6745495, "lon": 12.568047}, {"type": "node", "id": 312710996, "lat": 55.674581, "lon": 12.5682272}, {"type": "node", "id": 312710997, "lat": 55.6745292, "lon": 12.5683502}, {"type": "node", "id": 312710998, "lat": 55.674405, "lon": 12.5683241}, {"type": "node", "id": 312710999, "lat": 55.6743735, "lon": 12.5681439}, {"type": "node", "id": 312711000, "lat": 55.6744129, "lon": 12.5680353}, {"type": "node", "id": 312711001, "lat": 55.6744457, "lon": 12.5680053}, {"type": "node", "id": 312711002, "lat": 55.6744824, "lon": 12.5679971}, {"type": "node", "id": 312711003, "lat": 55.6745184, "lon": 12.5680115}, {"type": "node", "id": 312711295, "lat": 55.6741868, "lon": 12.5689946}, {"type": "node", "id": 312711296, "lat": 55.6741333, "lon": 12.5690287}, {"type": "node", "id": 312711297, "lat": 55.674077, "lon": 12.5691581}, {"type": "node", "id": 312711298, "lat": 55.6740383, "lon": 12.5693135}, {"type": "node", "id": 312711299, "lat": 55.6741247, "lon": 12.5692166}, {"type": "node", "id": 312711300, "lat": 55.6741783, "lon": 12.569095}, {"type": "node", "id": 313709499, "lat": 55.6844488, "lon": 12.5541773, "tags": {"amenity": "restaurant", "capacity": "25", "cuisine": "tapas", "fvst:navnelbnr": "559394", "name": "Temporada Tapasbodega", "note": "There has been several restaurants at the address, Visent, Da Mario, and others.", "opening_hours": "We-Sa 15:00-23:00", "phone": "+45 35351515", "ref:DK:cvr": "25878744", "ref:DK:cvr:pnummer": "1020159800", "website": "https://www.tapas-bar.dk/"}}, {"type": "node", "id": 334488835, "lat": 55.7062497, "lon": 12.5343603, "tags": {"amenity": "restaurant", "cuisine": "italian", "fvst:navnelbnr": "119711", "name": "Tribeca NV", "opening_hours": "Mo-Th 12:00-22:00; Fr-Sa 02:00-23:00; Su 05:00-21:00", "phone": "+45 35851050", "price": "DKK 135", "website": "http://tribecanv.dk/", "wheelchair": "yes"}}, {"type": "node", "id": 335679944, "lat": 55.6828339, "lon": 12.5744665, "tags": {"amenity": "restaurant", "cuisine": "thai", "fvst:name": "Ricemarked", "fvst:navnelbnr": "125973", "name": "Ricemarket", "opening_hours": "12:00-24:00", "phone": "+45 35357530", "ref:DK:cvr": "31254140", "ref:DK:cvr:pnummer": "1014173494", "smoking": "no", "website": "https://www.ricemarket.dk/", "wheelchair": "no"}}, {"type": "node", "id": 335975477, "lat": 55.6934573, "lon": 12.547615, "tags": {"amenity": "restaurant", "cuisine": "greek", "fvst:name": "Kreta Gr\u00e6sk Taverna", "fvst:navnelbnr": "116773", "name": "Kreta", "opening_hours": "16:00-24:00", "opening_hours:kitchen": "16:00-22:00", "ref:DK:cvr": "29887306", "ref:DK:cvr:pnummer": "1012654738"}}, {"type": "node", "id": 340502719, "lat": 55.6711195, "lon": 12.5457687, "tags": {"alt_name": "Tove Ditlevsens Mindehave", "amenity": "restaurant", "cuisine": "regional;sm\u00f8rrebr\u00f8d", "dinner": "yes", "facebook": "https://www.facebook.com/pages/Restaurant-Klubben/132235606835821", "fvst:navnelbnr": "119339", "name": "Restaurant Klubben", "opening_hours": "11:00-23:00", "outdoor_seating": "yes", "payment:credit_cards": "yes", "phone": "+45 33314015", "ref:DK:cvr": "31648912", "ref:DK:cvr:pnummer": "1014705798", "reservation": "yes", "toilets": "yes", "website": "http://www.restaurant-klubben.dk/"}}, {"type": "node", "id": 512049155, "lat": 55.6962411, "lon": 12.5736203, "tags": {"amenity": "restaurant", "cuisine": "french;italian", "fvst:navnelbnr": "114722", "name": "Romarin", "opening_hours": "Mo-Sa 17:00-23:30", "phone": "+45 35432928", "ref:DK:cvr": "27530389", "ref:DK:cvr:pnummer": "1010303849", "website": "http://restaurant-romarin.dk/", "wheelchair": "no"}}, {"type": "node", "id": 523733378, "lat": 55.6735634, "lon": 12.5666399, "tags": {"amenity": "restaurant", "cuisine": "french", "fvst:navnelbnr": "119684", "name": "Nimb Brasserie", "opening_hours": "07:00-11:00,12:00-15:30,17:00-22:00", "phone": "+45 88700000", "ref:DK:cvr": "10404916", "ref:DK:cvr:pnummer": "1015613633", "website": "http://brasserie.nimb.dk/"}}, {"type": "node", "id": 523734249, "lat": 55.676972, "lon": 12.5683639, "tags": {"amenity": "restaurant", "brand": "Hard Rock Cafe", "brand:wikidata": "Q918151", "brand:wikipedia": "en:Hard Rock Cafe", "cuisine": "american", "fvst:navnelbnr": "561315", "name": "Hard Rock Cafe", "opening_hours": "Su-We 10:00-24:00, Th 10:00-01:00, Fr-Sa 10:00-02:00", "opening_hours:kitchen": "10:00-23:00", "phone": "+45 33124333", "toilets:wheelchair": "yes", "website": "https://www.hardrock.com/cafes/copenhagen/", "wheelchair": "yes"}}, {"type": "node", "id": 524276682, "lat": 55.6743826, "lon": 12.5682719}, {"type": "node", "id": 524276684, "lat": 55.6743878, "lon": 12.5680834}, {"type": "node", "id": 524276685, "lat": 55.674443, "lon": 12.5683642}, {"type": "node", "id": 524276687, "lat": 55.674164, "lon": 12.5689972}, {"type": "node", "id": 524276688, "lat": 55.6741879, "lon": 12.5690362}, {"type": "node", "id": 524276689, "lat": 55.6740855, "lon": 12.5692727}, {"type": "node", "id": 524276690, "lat": 55.674053, "lon": 12.5692339}, {"type": "node", "id": 527908941, "lat": 55.6742769, "lon": 12.5503465, "tags": {"alt_name": "Famo Carne", "amenity": "restaurant", "fvst:name": "Carne Famo", "fvst:navnelbnr": "118502", "name": "Famo 51", "note": "Opening hours are for last seating", "opening_hours": "Mo-Sa 18:00-22:00", "phone": "+45 33222250", "ref:DK:cvr": "28507992", "ref:DK:cvr:pnummer": "1012829163", "website": "http://www.famo.dk/", "wheelchair": "no"}}, {"type": "node", "id": 527912072, "lat": 55.6723741, "lon": 12.5506713, "tags": {"amenity": "restaurant", "cuisine": "italian", "fvst:navnelbnr": "115373", "name": "Famo", "opening_hours": "Mo-Su 18:00+", "opening_hours:seating": "Mo-Su 18:00-22:00", "phone": "+45 33232250", "ref:DK:cvr": "28507992", "ref:DK:cvr:pnummer": "1011203600", "website": "http://www.famo.dk/", "wheelchair": "no"}}, {"type": "node", "id": 552389831, "lat": 55.6932938, "lon": 12.5117591, "tags": {"amenity": "restaurant", "cuisine": "italian", "fvst:navnelbnr": "118008", "name": "La Buca degli Artisti", "opening_hours": "Tu-Su 17:30-23:30; easter -3 days-easter +1 day off; Dec 24-Jan 01 closed", "phone": "+45 38332022", "ref:DK:cvr": "30599772", "ref:DK:cvr:pnummer": "1013322445", "website": "http://labuca.dk/"}}, {"type": "node", "id": 612546725, "lat": 55.7021553, "lon": 12.5827876, "tags": {"amenity": "restaurant", "cuisine": "sushi", "diet:vegetarian": "no", "fvst:navnelbnr": "567101", "name": "Iki Sushi", "opening_hours": "Mo-Su 11:00-22:00", "ref:DK:cvr": "32109306", "ref:DK:cvr:pnummer": "1020509674", "smoking": "no", "website": "https://www.ikisushi.dk/", "wheelchair": "limited"}}, {"type": "node", "id": 624518502, "lat": 55.6918541, "lon": 12.5573297, "tags": {"amenity": "restaurant", "award:michelin": "1", "cuisine": "thai", "email": "kiin@kiin.dk", "fvst:navnelbnr": "119559", "name": "Kiin Kiin", "opening_hours": "Mo-Sa 17:30-24:00", "phone": "+45 35357555", "ref:DK:cvr": "29603170", "ref:DK:cvr:pnummer": "1012843557", "reservation": "yes", "stars": "1", "website": "https://www.kiin.dk/", "wikidata": "Q22983542"}}, {"type": "node", "id": 679011950, "lat": 55.6969787, "lon": 12.5458449, "tags": {"amenity": "restaurant", "cuisine": "thai", "fvst:navnelbnr": "768246", "name": "Mae Pen", "opening_hours": "Su-Th 15:00-21:30; Fr-Sa 15:00-22:00", "phone": "+45 35840707", "ref:DK:cvr": "26663504", "ref:DK:cvr:pnummer": "1023615645", "website": "http://www.maepen.dk", "wheelchair": "no"}}, {"type": "node", "id": 706670438, "lat": 55.6854535, "lon": 12.5522738, "tags": {"amenity": "restaurant", "cuisine": "italian", "fvst:navnelbnr": "116799", "name": "Scarpetta", "opening_hours": "17:30-24:00", "phone": "+45 35350808", "ref:DK:cvr": "29206600", "ref:DK:cvr:pnummer": "1015117237", "website": "http://cofoco.dk/da/restauranter/scarpetta-rantzausgade/"}}, {"type": "node", "id": 733779556, "lat": 55.6718039, "lon": 12.5583805, "tags": {"amenity": "restaurant", "cuisine": "international", "fvst:navnelbnr": "114422", "name": "Cofoco", "opening_hours": "Mo-Sa 17:30-24:00", "opening_hours:kitchen": "Mo-Sa 17:30-21:30", "phone": "+45 33136060", "ref:DK:cvr": "29206600", "ref:DK:cvr:pnummer": "1019106787", "website": "https://cofoco.dk/"}}, {"type": "node", "id": 733791085, "lat": 55.6737032, "lon": 12.550029, "tags": {"amenity": "restaurant", "cuisine": "french", "fvst:navnelbnr": "115293", "name": "Les trois cochons", "opening_hours": "Mo-Sa 12:00-14:30,17:30-24:00; Su 17:30-24:00", "phone": "+45 33317055", "ref:DK:cvr": "29206600", "ref:DK:cvr:pnummer": "1012130607", "website": "https://cofoco.dk/", "wheelchair": "no"}}, {"type": "node", "id": 733808221, "lat": 55.684161, "lon": 12.5877522, "tags": {"amenity": "restaurant", "cuisine": "international", "dinner": "yes", "fvst:navnelbnr": "115984", "name": "Madklubben Bistro de luxe", "opening_hours": "Mo-Sa 15:30-24:00", "payment:credit_cards": "yes", "phone": "+45 3332 3234", "ref:DK:cvr": "30069005", "ref:DK:cvr:pnummer": "1012784135", "reservation": "yes", "toilets": "yes", "website": "https://madklubben.dk/madklubben-koebenhavn/", "wheelchair": "no"}}, {"type": "node", "id": 733810536, "lat": 55.6817859, "lon": 12.5883393, "tags": {"alt_name": "Modern American Steak House", "amenity": "restaurant", "branch": "Bredgade", "brand": "Mash", "cuisine": "steak", "dinner": "yes", "fvst:name": "Mash-Modern American Steak House", "fvst:navnelbnr": "117401", "internet_access": "wlan", "name": "MASH Steakhouse Bredgade", "opening_hours": "Sa 17:30-23:00; Su 17:30-22:00; Mo-We 12:00-15:00,17:30-22:00; Th-Fr 12:00-15:00,17:30-23:00", "payment:credit_cards": "yes", "phone": "+4533139300", "ref:DK:cvr": "31427223", "ref:DK:cvr:pnummer": "1015340106", "reservation": "yes", "toilets": "yes", "website": "https://www.mashsteak.dk/restauranter/mash-bredgade/", "wheelchair": "limited"}}, {"type": "node", "id": 738164607, "lat": 55.6985159, "lon": 12.5811113, "tags": {"amenity": "restaurant", "cuisine": "italian", "description": "Italian restaurant", "fvst:navnelbnr": "112139", "name": "Taormina", "opening_hours": "Mo-Sa 17:00-24:00", "opening_hours:kitchen": "Mo-Sa 17:00-22:30", "phone": "+45 35 38 20 02", "ref:DK:cvr": "16160199", "ref:DK:cvr:pnummer": "1001045568", "website": "https://www.taormina.dk/"}}, {"type": "node", "id": 872697609, "lat": 55.6905436, "lon": 12.5755799, "tags": {"amenity": "restaurant", "cuisine": "japanese", "fvst:navnelbnr": "111625", "name": "Sticks 'n' sushi", "opening_hours": "Fr-Sa 10:00-22:30; Su-Th 10:00-22:00", "phone": "+45 35383463", "ref:DK:cvr": "73342619", "ref:DK:cvr:pnummer": "1011505836", "url": "http://sushi.dk", "website": "http://www.sushi.dk/restauranter/oesterbro.html"}}, {"type": "node", "id": 893957381, "lat": 55.6747359, "lon": 12.5639085, "tags": {"amenity": "restaurant", "capacity": "130", "fvst:navnelbnr": "539449", "name": "Caf\u00e8 Royal", "opening_hours": "Mo-Fr 12:00-17:00,18:00-22:30; Sa-Su 13:00-17:00,18:00-22:30", "operator": "Radisson Blu", "phone": "+45 33426053", "ref:DK:cvr": "35255095", "ref:DK:cvr:pnummer": "1018543628", "website": "https://www.radissonblu.com/en/royalhotel-copenhagen/restaurants", "wheelchair": "yes"}}, {"type": "node", "id": 893959430, "lat": 55.6754287, "lon": 12.5644398, "tags": {"amenity": "restaurant", "fvst:navnelbnr": "510638", "name": "Axelborg Bodega", "opening_hours": "11:00-16:00,16:00+", "phone": "+45 33110638", "ref:DK:cvr": "34216444", "ref:DK:cvr:pnummer": "1017432954", "website": "http://www.axelborgbodega.dk/", "wheelchair": "no"}}, {"type": "node", "id": 893969832, "lat": 55.6767843, "lon": 12.5720495, "tags": {"amenity": "restaurant", "fvst:navnelbnr": "110834", "name": "Domhusets Sm\u00f8rrebr\u00f8d", "opening_hours": "Mo-Fr 07:00-15:00", "phone": "+45 33159898", "ref:DK:cvr": "20798947", "ref:DK:cvr:pnummer": "1004514152", "website": "http://indreby-koebenhavn.dk/butik/domhusets-smorrebrod-2046.html", "wheelchair": "no"}}, {"type": "node", "id": 894198764, "lat": 55.680806, "lon": 12.588025, "tags": {"amenity": "restaurant", "fvst:name": "Habour Grill", "fvst:navnelbnr": "786686", "name": "Harbour Grill", "opening_hours": "11:00-22:00", "operator": "Barock", "phone": "+45 33330151", "ref:DK:cvr": "17720082", "ref:DK:cvr:pnummer": "1024217988", "website": "http://www.barock.dk/", "wheelchair": "limited"}}, {"type": "node", "id": 894360621, "lat": 55.6875403, "lon": 12.5850836, "tags": {"amenity": "restaurant", "award:michelin": "1", "cuisine": "regional", "email": "info@kokkeriet.dk", "facebook": "https://www.facebook.com/kokkeriet/", "fvst:navnelbnr": "574616", "name": "Kokkeriet", "opening_hours": "Mo-Sa 18:00-01:00", "payment:credit_cards": "yes", "phone": "+45 33152777", "ref:DK:cvr": "36618876", "ref:DK:cvr:pnummer": "1020485813", "reservation": "yes", "stars": "1", "website": "https://www.kokkeriet.dk/", "wikidata": "Q15043405", "wikipedia": "da:Restaurant Kokkeriet"}}, {"type": "node", "id": 895769852, "lat": 55.6748243, "lon": 12.5661037, "tags": {"alt_name": "Bryggeriet Apollo", "amenity": "restaurant", "cuisine": "steak", "fvst:navnelbnr": "114016", "name": "A Hereford Beefstouw", "note": "Entrance from both Tivoli and Vesterbrogade", "opening_hours": "Su-Th 10:00-16:00,17:00-24:00; Fr-Sa 10:00-16:00,17:00-01:30", "phone": "+45 33127441", "ref:DK:cvr": "75148712", "ref:DK:cvr:pnummer": "1003187861", "website": "http://a-h-b.dk/tivoli/", "wheelchair": "no"}}, {"type": "node", "id": 898924504, "lat": 55.6816089, "lon": 12.5832999, "tags": {"amenity": "restaurant", "cuisine": "regional", "email": "info@groennegade.dk", "fvst:navnelbnr": "115675", "name": "Restaurant Gr\u00f8nnegade", "note": "opening hours are for the kitchen", "opening_hours": "Mo-Th 17:30-22:00; Fr-Sa 17:30-23:00; Dec 17:30-22:00", "phone": "+45 33933133", "ref:DK:cvr": "26903793", "ref:DK:cvr:pnummer": "1009573336", "smoking": "no", "website": "https://www.groennegade.dk/"}}, {"type": "node", "id": 898930444, "lat": 55.6825061, "lon": 12.582179, "tags": {"amenity": "restaurant", "cuisine": "french", "email": "info@bistro-pastis.dk", "fvst:navnelbnr": "116528", "name": "Pastis", "opening_hours": "Su-Th 11:00-23:00; Fr-Sa 11:00-01:00", "opening_hours:kitchen": "Mo-Fr 11:30-15:00,17:30-22:30; Sa 11:30-15:30,17:30-22:30", "phone": "+45 33934411", "ref:DK:cvr": "29394342", "ref:DK:cvr:pnummer": "1001139311", "smoking": "no", "toilets:wheelchair": "no", "website": "http://bistro-pastis.dk/", "wheelchair": "limited"}}, {"type": "node", "id": 898954822, "lat": 55.6799188, "lon": 12.5764619, "tags": {"amenity": "restaurant", "cuisine": "italian", "fvst:name": "Restaurant Sole DItalia", "fvst:navnelbnr": "112177", "name": "Sole D Italia", "opening_hours": "11:00-23:00", "phone": "+45 33324746", "ref:DK:cvr": "26657776", "ref:DK:cvr:pnummer": "1015395822", "website": "https://soleditalia.dk/"}}, {"type": "node", "id": 898958559, "lat": 55.6797205, "lon": 12.5754643, "tags": {"alt_name": "Restaurant Le Pave Wining & Dining", "amenity": "restaurant", "cuisine": "french", "fvst:name": ";Restaurant Le Pave Wining & Dining", "fvst:navnelbnr": "113033", "name": "Le Pav\u00e9", "opening_hours": "11:00-24:00", "opening_hours:kitchen": "11:00-22:30", "phone": "+45 33134745", "ref:DK:cvr": "69578616", "ref:DK:cvr:pnummer": "1002300290", "website": "http://lepave.dk/"}}, {"type": "node", "id": 1029831585, "lat": 55.691122, "lon": 12.556225, "tags": {"amenity": "restaurant", "cuisine": "sushi", "fvst:navnelbnr": "660362", "internet_access": "wlan", "name": "Susu Sushi", "opening_hours": "Mo-Th 16:00-22:00; Fr-Sa 16:00-24:00; Su 16:00-21:30", "outdoor_seating": "yes", "phone": "+45 35 12 12 14", "ref:DK:cvr": "37671533", "ref:DK:cvr:pnummer": "1021403659", "takeaway": "yes", "website": "https://www.susu.dk/"}}, {"type": "node", "id": 1039422794, "lat": 55.6740934, "lon": 12.5691226}, {"type": "node", "id": 1109570661, "lat": 55.690407, "lon": 12.559709, "tags": {"amenity": "restaurant", "branch": "N\u00f8rrebro", "cuisine": "sushi", "fvst:navnelbnr": "116485", "name": "Letz Sushi", "opening_hours": "Mo-Sa 11:30-21:00; Su 16:00-21:00", "ref:DK:cvr": "10107423", "ref:DK:cvr:pnummer": "1012807682", "website": "https://www.letzsushi.dk/restauranter/norrebro/"}}, {"type": "node", "id": 1298364162, "lat": 55.6792148, "lon": 12.512732, "tags": {"amenity": "restaurant", "cuisine": "danish", "fvst:fixme": "lat missing in FVST", "fvst:navnelbnr": "117725", "name": "Cafe Lindevang", "opening_hours": "Mo-Sa 11:30-15:30,16:30-21:00; PH off", "phone": "+45 38343834", "ref:DK:cvr": "30178017", "ref:DK:cvr:pnummer": "1012895689", "website": "http://www.cafelindevang.dk/", "wikidata": "Q63457131"}}, {"type": "node", "id": 1304586256, "lat": 55.6869993, "lon": 12.558727, "tags": {"amenity": "restaurant", "diet:vegan": "yes", "diet:vegetarian": "yes", "fvst:navnelbnr": "114079", "name": "Kates Joint", "opening_hours": "17:00-22:30; Su 17:00-21:00", "ref:DK:cvr": "34091641", "ref:DK:cvr:pnummer": "1017363952"}}, {"type": "node", "id": 1331044296, "lat": 55.6846722, "lon": 12.5822174}, {"type": "node", "id": 1331044331, "lat": 55.6846517, "lon": 12.5822006}, {"type": "node", "id": 1448400019, "lat": 55.6928738, "lon": 12.551605, "tags": {"amenity": "restaurant", "cuisine": "surf&turf", "fvst:name": "Oyster & Grill", "fvst:navnelbnr": "125199", "name": "Oysters & Grill", "note": "Opening hours are for last seating", "opening_hours": "Mo-Th 17:30-21:30; Fr-Sa 17:30-22:00; Su 17:30-21:15", "operator": "CoFoCo", "phone": "+45 70206171", "ref:DK:cvr": "29206600", "ref:DK:cvr:pnummer": "1016701919", "website": "https://cofoco.dk/da/restauranter/oysters-and-grill/", "wheelchair": "no"}}, {"type": "node", "id": 1448418513, "lat": 55.6847044, "lon": 12.5662078, "tags": {"amenity": "restaurant", "cuisine": "italian", "fvst:navnelbnr": "112972", "name": "La Rocca", "note": "Opening hours for kitchen", "opening_hours": "12:00-22:30; Dec 25 off", "phone": "+4533126655", "ref:DK:cvr": "25136721", "ref:DK:cvr:pnummer": "1007345689", "website": "https://www.larocca.dk/", "wheelchair": "limited"}}, {"type": "node", "id": 1448422015, "lat": 55.6832824, "lon": 12.5661022, "tags": {"amenity": "restaurant", "check_date:diet:vegetarian": "2021-05-17", "cuisine": "regional", "diet:vegetarian": "yes", "fvst:navnelbnr": "516922", "name": "H\u00f6st", "opening_hours": "17:30-24:00 \"last order 21:30\"", "operator": "Cofoco", "phone": "+45 89938409", "ref:DK:cvr": "34709254", "ref:DK:cvr:pnummer": "1017951862", "toilets:wheelchair": "no", "website": "https://cofoco.dk/en/restaurants/hoest/", "wheelchair": "no"}}, {"type": "node", "id": 1449431262, "lat": 55.7131196, "lon": 12.5738763, "tags": {"amenity": "restaurant", "contact:phone": "+45 39200601", "cuisine": "chinese", "fvst:navnelbnr": "117057", "name": "Yuan Hong", "opening_hours": "Mo-Su 13:00-22:00", "ref:DK:cvr": "31574765", "ref:DK:cvr:pnummer": "1014677107"}}, {"type": "node", "id": 1452350634, "lat": 55.6727576, "lon": 12.5521715, "tags": {"amenity": "restaurant", "cuisine": "italian", "email": "spuntino@cofoco.dk", "fvst:navnelbnr": "122314", "name": "Spuntino", "opening_hours": "Mo-Sa 17:30-24:00", "phone": "+4570205089", "ref:DK:cvr": "29206600", "ref:DK:cvr:pnummer": "1016446536", "website": "https://cofoco.dk/en/restaurants/spuntino/", "wheelchair": "no"}}, {"type": "node", "id": 1453510446, "lat": 55.678578, "lon": 12.5815308, "tags": {"amenity": "restaurant", "diet:vegan": "yes", "diet:vegetarian": "yes", "dinner": "yes", "facebook": "https://www.facebook.com/restaurantmaven/", "fvst:name": "Maven - Restaurant og Vinbar", "fvst:navnelbnr": "130771", "indoor_seating": "yes", "name": "Restaurant Maven", "opening_hours": "Mo-Th 11:30-24:00, Fr-Sa 11:30-02:00", "opening_hours:kitchen": "11:30-15:30,17:30-22:00", "outdoor_seating": "yes", "payment:credit_cards": "yes", "phone": "+45 32201100", "ref:DK:cvr": "33782039", "ref:DK:cvr:pnummer": "1017003735", "reservation": "yes", "smoking": "outside", "toilets": "yes", "website": "http://www.restaurantmaven.dk/", "website:dog": "https://www.restaurantmaven.dk/", "wheelchair": "yes"}}, {"type": "node", "id": 1453855043, "lat": 55.6723586, "lon": 12.5630101, "tags": {"amenity": "restaurant", "cuisine": "chinese", "fvst:navnelbnr": "117544", "name": "Magasasa", "opening_hours": "mo-su 11:00-23:00", "opening_hours:kitchen": "Mo-Su 11:00-22:00", "ref:DK:cvr": "30353447", "ref:DK:cvr:pnummer": "1014822700", "website": "http://www.magasasa.dk/1.html"}}, {"type": "node", "id": 1462223632, "lat": 55.683478, "lon": 12.567996, "tags": {"amenity": "restaurant", "capacity": "50", "cuisine": "galettes", "diet:vegan": "no", "diet:vegetarian": "yes", "fvst:navnelbnr": "128643", "name": "La Petanque", "opening_hours": "Tu-Sa 11:30-22:00; Mo, Su 11:30-21:00", "phone": "+4564658223", "ref:DK:cvr": "33443439", "ref:DK:cvr:pnummer": "1016704888", "website": "http://www.lapetanque.dk/", "wheelchair": "no"}}, {"type": "node", "id": 1463841652, "lat": 55.697735, "lon": 12.578279, "tags": {"amenity": "restaurant", "cuisine": "danish", "fvst:navnelbnr": "117108", "name": "S\u00f8promenaden", "opening_hours": "11:00-23:00", "opening_hours:kitchen": "11:00-21:30", "phone": "+45 35426606", "ref:DK:cvr": "29009260", "ref:DK:cvr:pnummer": "1011711304", "website": "https://www.xn--spromenaden-ggb.dk/", "wheelchair": "limited"}}, {"type": "node", "id": 1487026146, "lat": 55.6899665, "lon": 12.5750967, "tags": {"alt_name": "Aamanns", "amenity": "restaurant", "award:michelin": "the_plate_michelin", "contact:instagram": "https://www.instagram.com/aamanns.dk", "dinner": "yes", "facebook": "https://www.facebook.com/aamanns.dk/", "fvst:navnelbnr": "761691", "lunch": "yes", "name": "Aamanns Etablissement", "opening_hours": "12:00-16:00,18:00-23:00; sa 18:30-23:00; su 11:30-16:00", "payment:credit_cards": "yes", "phone": "+45 20805202", "ref:DK:cvr": "39687518", "ref:DK:cvr:pnummer": "1023876864", "reservation": "yes", "toilets": "yes", "website": "https://aamanns.dk"}}, {"type": "node", "id": 1487058307, "lat": 55.6896143, "lon": 12.5750925, "tags": {"alt_name": "Frokost under Uret", "amenity": "restaurant", "cuisine": "sm\u00f8rrebr\u00f8d", "fvst:navnelbnr": "548250", "name": "Under Uret", "opening_hours": "Mo-Su 11:30-16:00", "ref:DK:cvr": "35824480", "ref:DK:cvr:pnummer": "1019394723", "wikidata": "Q66827506"}}, {"type": "node", "id": 1487067233, "lat": 55.6886663, "lon": 12.5730861, "tags": {"amenity": "restaurant", "fvst:fixme": "fvst:no_pos", "fvst:navnelbnr": "634748", "name": "Stue 11", "opening_hours": "Mo-We 10:00-24:00, Th-Sa 10:00-02:00; Sep-Apr Su 10:00-18:00", "phone": "+45 3332 5311", "ref:DK:cvr": "18525739", "ref:DK:cvr:pnummer": "1017906123", "website": "http://www.stue11.dk/"}}, {"type": "node", "id": 1489626961, "lat": 55.6823983, "lon": 12.5736627, "tags": {"amenity": "restaurant", "fvst:navnelbnr": "118865", "name": "Ph\u00f8nix", "opening_hours": "09:00-24:00", "opening_hours:kitchen": "09:00-22:00", "ref:DK:cvr": "30896432", "ref:DK:cvr:pnummer": "1013643586", "website": "http://xn--cafephnix-kultorvet-07b.dk/"}}, {"type": "node", "id": 1489660498, "lat": 55.679453, "lon": 12.575676, "tags": {"amenity": "restaurant", "cuisine": "burger", "diet:vegetarian": "yes", "fvst:navnelbnr": "118433", "name": "Sporvejen", "opening_hours": "Mo-Sa 11:00-22:00; Su 12:00-22:00", "outdoor_seating": "yes", "phone": "+45 33 13 31 01", "ref:DK:cvr": "27754384", "ref:DK:cvr:pnummer": "1010588193", "takeaway": "yes"}}, {"type": "node", "id": 1497190105, "lat": 55.6834973, "lon": 12.5871782, "tags": {"amenity": "restaurant", "cuisine": "danish", "delivery": "yes", "dinner": "yes", "fvst:navnelbnr": "111312", "name": "Restaurant M", "opening_hours": "Mo-Sa 11:30-16:00 || Nov-Dec 19:00+", "outdoor_seating": "yes", "payment:credit_cards": "yes", "phone": "+45 33158577", "ref:DK:cvr": "27028802", "ref:DK:cvr:pnummer": "1002596208", "reservation": "yes", "takeaway": "yes", "toilets": "yes", "website": "https://www.restaurant-m.dk/"}}, {"type": "node", "id": 1497190407, "lat": 55.6832778, "lon": 12.5869911, "tags": {"amenity": "restaurant", "award:michelin": "bib_gourmand", "contact:instagram": "https://www.instagram.com/restaurantrebel/", "cuisine": "french", "dinner": "yes", "email": "info@restaurantrebel.dk", "facebook": "https://www.facebook.com/restaurantRebel/", "fvst:navnelbnr": "119257", "name": "Rebel", "opening_hours": "tu-sa 17:30-24:00", "opening_hours:kitchen": "Tu-Sa 17:30-22:30", "payment:credit_cards": "yes", "phone": "+45 33323209", "ref:DK:cvr": "33250320", "ref:DK:cvr:pnummer": "1016385758", "reservation": "yes", "toilets": "yes", "website": "http://www.restaurantrebel.dk/", "wikidata": "Q23908783"}}, {"type": "node", "id": 1497192555, "lat": 55.6829652, "lon": 12.586713, "tags": {"amenity": "restaurant", "cuisine": "french", "dinner": "yes", "fvst:navnelbnr": "119103", "name": "The Red Box", "opening_hours": "Mo-Sa 17:00-23:00", "payment:credit_cards": "yes", "phone": "+45 43334333", "ref:DK:cvr": "32770037", "ref:DK:cvr:pnummer": "1015840354", "reservation": "yes", "toilets": "yes", "website": "http://www.theredbox.dk/"}}, {"type": "node", "id": 1497197048, "lat": 55.6813679, "lon": 12.5858844, "tags": {"amenity": "restaurant", "cuisine": "italian", "dinner": "yes", "fvst:navnelbnr": "119131", "lunch": "yes", "name": "Trattoria Fiat", "note": "opening hours for kitchen", "opening_hours": "Su-We 12:00-16:00,17:30-22:00; Th-Sa 12:00-16:00,17:30-23:00", "payment:credit_cards": "yes", "phone": "+45 3314 2277", "ref:DK:cvr": "30688759", "ref:DK:cvr:pnummer": "1013377231", "reservation": "yes", "smoking": "no", "takeaway": "yes", "toilets": "yes", "website": "https://f-i-a-t.dk/", "wheelchair": "limited"}}, {"type": "node", "id": 1497199070, "lat": 55.681251, "lon": 12.584056, "tags": {"amenity": "restaurant", "cuisine": "wok", "fvst:navnelbnr": "112780", "name": "Wok Shop", "opening_hours": "Mo-Sa 12:00-22:00", "phone": "+45 33916121", "ref:DK:cvr": "25362225", "ref:DK:cvr:pnummer": "1007641911", "smoking": "no", "website": "http://wokshop.dk/restauranter/wokshop-indre-by/", "wheelchair": "no"}}, {"type": "node", "id": 1596794742, "lat": 55.6780117, "lon": 12.5714461, "tags": {"alt_name": "Huset med det gr\u00f8nne tr\u00e6", "amenity": "restaurant", "cuisine": "sm\u00f8rrebr\u00f8d", "facebook": "https://www.facebook.com/gammeltorv20/", "fvst:name": "Huset med det gr\u00f8nne tr\u00e6", "fvst:navnelbnr": "1109577", "lunch": "yes", "name": "Cafe Gl. Torv", "opening_hours": "11:30-17:00", "payment:credit_cards": "yes", "phone": "+45 33 12 87 86", "ref:DK:cvr": "39684098", "ref:DK:cvr:pnummer": "1023749781", "toilets": "yes", "website": "http://cafegammeltorv.dk", "wikidata": "Q63436622"}}, {"type": "node", "id": 1608834392, "lat": 55.6797421, "lon": 12.5844793, "tags": {"amenity": "restaurant", "cuisine": "sm\u00f8rrebr\u00f8d", "fvst:navnelbnr": "771998", "name": "Skindbuksen", "opening_hours": "Su 11:00-23:00; Mo-Th 11:00-24:00; Fr-Sa 11:00-02:00", "phone": "+45 33129037", "ref:DK:cvr": "34602794", "ref:DK:cvr:pnummer": "1024146843", "website": "https://www.skindbuksen.dk/", "wheelchair": "limited", "wikidata": "Q63457192"}}, {"type": "node", "id": 1612947010, "lat": 55.6746192, "lon": 12.5730884, "tags": {"amenity": "restaurant", "cuisine": "regional", "fvst:navnelbnr": "112204", "name": "Tivoli Hallen", "opening_hours": "Mo-We 11:30-16:00; Th-Fr 11:30-16:00,17:30-21:00; Sa 17:30-21:00; Su,PH off", "outdoor_seating": "yes", "phone": "+45 33110160", "ref:DK:cvr": "26850266", "ref:DK:cvr:pnummer": "1009414262", "website": "http://tivolihallen.dk/", "wikidata": "Q63455849"}}, {"type": "node", "id": 1612961569, "lat": 55.6761458, "lon": 12.5739423, "tags": {"amenity": "restaurant", "cuisine": "regional", "fvst:name": "PUSH", "fvst:navnelbnr": "1221422", "name": "Restaurant Puk", "opening_hours": "11:30-16:00,17:30-22:00; Dec 23-26 off; Jan 01 12:00-21:30", "phone": "+45 33111417", "ref:DK:cvr": "42675229", "ref:DK:cvr:pnummer": "1027531276", "website": "https://www.restaurantpuk.dk/", "wheelchair": "no", "wikidata": "Q21855786"}}, {"type": "node", "id": 1613007542, "lat": 55.6766459, "lon": 12.5745289, "tags": {"amenity": "restaurant", "fvst:navnelbnr": "646121", "name": "Galathea Kroen", "opening_hours": "Tu,We 17:00-22:00; Th-Sa 15:00-22:00", "ref:DK:cvr": "37610720", "ref:DK:cvr:pnummer": "1021351292", "wheelchair": "no"}}, {"type": "node", "id": 1628441953, "lat": 55.6821031, "lon": 12.5801549, "tags": {"amenity": "restaurant", "cuisine": "japanese", "fvst:navnelbnr": "119708", "name": "Sakura", "opening_hours": "Mo-Sa 17:00-23:00", "phone": "+45 33131189", "ref:DK:cvr": "30333772", "ref:DK:cvr:pnummer": "1013153384", "website": "http://www.sakura22.dk/"}}, {"type": "node", "id": 1628835305, "lat": 55.680325, "lon": 12.5745687, "tags": {"amenity": "restaurant", "cuisine": "danish", "fvst:navnelbnr": "930173", "name": "Det Lille Apotek", "opening_hours": "11:30-24:00", "opening_hours:kitchen": "11:30-17:00,17:30-22:00", "ref:DK:cvr": "41037369", "ref:DK:cvr:pnummer": "1025370577", "website": "https://detlilleapotek.dk/", "wikidata": "Q27888059", "year": "1720"}}, {"type": "node", "id": 1628856189, "lat": 55.6815692, "lon": 12.5725665, "tags": {"amenity": "restaurant", "cuisine": "thai", "fvst:navnelbnr": "118525", "name": "Scurry Hub", "opening_hours": "Mo-Fr 11:30-21:00; Sa 12:00-20:00", "phone": "+45 20379739", "ref:DK:cvr": "32294596", "ref:DK:cvr:pnummer": "1015416862", "website": "http://scurryhub.dk/"}}, {"type": "node", "id": 1628902657, "lat": 55.6835622, "lon": 12.5739764, "tags": {"amenity": "restaurant", "cuisine": "italian", "fvst:name": "San Giorgio", "fvst:navnelbnr": "113402", "name": "San Giorgio's", "opening_hours": "Mo-Sa 18:00-23:00", "opening_hours:kitchen": "Mo-Sa 18:00-22:00", "phone": "+45 33126120", "ref:DK:cvr": "77440712", "ref:DK:cvr:pnummer": "1002520543", "website": "http://www.san-giorgio.dk/"}}, {"type": "node", "id": 1628914282, "lat": 55.6839789, "lon": 12.5743876, "tags": {"amenity": "restaurant", "cuisine": "danish", "fvst:fixme": "fvst:no_pos", "fvst:navnelbnr": "131921", "name": "Brdr. Price", "opening_hours": "Mo-Su 12:00+", "phone": "+45 38411020", "ref:DK:cvr": "33745958", "ref:DK:cvr:pnummer": "1017193550", "website": "https://www.brdr-price.dk/"}}, {"type": "node", "id": 1628944947, "lat": 55.682815, "lon": 12.576023, "tags": {"amenity": "restaurant", "cuisine": "sm\u00f8rrebr\u00f8d", "fvst:navnelbnr": "116780", "name": "Sch\u00f8nnemann", "opening_hours": "Mo-Sa 11:30-17:00", "opening_hours:kitchen": "11:30-14:00,14:14-17:00", "phone": "+45 33120785", "ref:DK:cvr": "20094591", "ref:DK:cvr:pnummer": "1002769312", "website": "http://www.restaurantschonnemann.dk/", "wheelchair": "limited", "wikidata": "Q63456099"}}, {"type": "node", "id": 1628951473, "lat": 55.682357, "lon": 12.575696, "tags": {"amenity": "restaurant", "fvst:navnelbnr": "126805", "name": "El Meson", "opening_hours": "12:00-24:00", "phone": "+45 33119131", "ref:DK:cvr": "33496826", "ref:DK:cvr:pnummer": "1016624949", "website": "http://www.elmeson.dk/", "wheelchair": "limited"}}, {"type": "node", "id": 1629978473, "lat": 55.6807141, "lon": 12.5883495, "tags": {"amenity": "restaurant", "cuisine": "danish", "fvst:name": ";F\u00e6rgekroen - \u00d8resund", "fvst:navnelbnr": "912519", "name": "Nyhavns F\u00e6rgekro", "opening_hours": "09:00-23:00; Fr-Sa 09:00-24:00", "opening_hours:kitchen": "Su-Th 09:30-22.00; Fr-Sa. 09:30-23:00", "outdoor_seating": "yes", "payment:credit_cards": "yes", "phone": "+45 33151588", "ref:DK:cvr": "40608524", "ref:DK:cvr:pnummer": "1024972808", "toilets": "yes", "website": "https://www.nyhavnsfaergekro.dk/", "wheelchair": "limited", "wikidata": "Q63457316"}}, {"type": "node", "id": 1630507528, "lat": 55.6757981, "lon": 12.5426451, "tags": {"amenity": "restaurant", "award:michelin": "bib_gourmand", "cuisine": "french", "dinner": "yes", "email": "mail@melee.dk", "facebook": "https://www.facebook.com/RestaurantMelee/", "fvst:navnelbnr": "116096", "name": "M\u00eal\u00e9e", "opening_hours": "tu-sa 17:30-24:00", "opening_hours:kitchen": "Tu-Sa 17:30-24:00", "outdoor_seating": "yes", "payment:credit_cards": "yes", "phone": "+4535131134", "ref:DK:cvr": "32475027", "ref:DK:cvr:pnummer": "1015568522", "reservation": "yes", "toilets": "yes", "website": "http://www.melee.dk"}}, {"type": "node", "id": 1674345539, "lat": 55.7037103, "lon": 12.5720401, "tags": {"amenity": "restaurant", "award:michelin": "3", "capacity": "36", "cuisine": "fine_dining", "delivery": "no", "facebook": "https://facebook.com/restaurantgeranium", "fvst:navnelbnr": "666190", "name": "Geranium", "note": "reservation necessary", "opening_hours": "We 18:30-24:00; Th-Sa 12:00-15:30,18:30-24:00 \"last reservation 13:30 for lunch, 21:00 for dinner\"", "outdoor_seating": "no", "phone": "+45 69960020", "ref:DK:cvr": "36711086", "ref:DK:cvr:pnummer": "1020312234", "reservation": "required", "smoking": "no", "stars": "3", "takeaway": "no", "website": "http://www.geranium.dk/", "wheelchair": "yes", "wikidata": "Q15573853"}}, {"type": "node", "id": 1681735581, "lat": 55.6845789, "lon": 12.5697732, "tags": {"amenity": "restaurant", "cuisine": "pakistani", "fvst:navnelbnr": "915867", "name": "Zahida", "opening_hours": "Tu-Sa 17:00-22:00; Su 16:00-21:00", "ref:DK:cvr": "40730990", "ref:DK:cvr:pnummer": "1025077543", "website": "https://www.zahida.dk/"}}, {"type": "node", "id": 1775489880, "lat": 55.6889266, "lon": 12.562565, "tags": {"amenity": "restaurant", "branch": "N\u00f8rrebro", "cuisine": "japanese", "fvst:navnelbnr": "562391", "name": "Kung Fu II Izakaya Bar", "opening_hours": "Mo-Sa 17:30+", "phone": "+45 40636976", "ref:DK:cvr": "36412909", "ref:DK:cvr:pnummer": "1019826895", "source": "survey", "website": "http://kungfubar.dk/noerrebro/frontpage/", "wheelchair": "no"}}, {"type": "node", "id": 1781913430, "lat": 55.7017253, "lon": 12.5807559, "tags": {"alt_name": "Fischer", "amenity": "restaurant", "cuisine": "italian", "diet:vegetarian": "yes", "fvst:navnelbnr": "119754", "name": "Hos Fischer", "opening_hours": "We-Fr 11:30-22:00; Sa,Su 11:00-22:00", "outdoor_seating": "yes", "phone": "+45 35 42 39 64", "ref:DK:cvr": "30498283", "ref:DK:cvr:pnummer": "1013191286", "reservation": "no", "website": "https://hosfischer.dk/", "wheelchair": "yes"}}, {"type": "node", "id": 1793525283, "lat": 55.6726005, "lon": 12.5313911, "tags": {"amenity": "restaurant", "cuisine": "danish", "dinner": "yes", "fvst:navnelbnr": "115954", "lunch": "yes", "name": "Hansens Gamle Familiehave", "opening_hours": "Jan-Feb We-Sa 11:00-24:00,Su 11:00-18:00; Mar Tu-Sa 11:00-24:00,Su 11:00-18:00; Apr-Sep 11:00-24:00; Oct 1-Nov 11 Tu-Sa 11:00-24:00,Su 11:00-18:00; Nov 12-Dec 22 Mo-Sa 11:00-24:00", "opening_hours:kitchen": "Jan-Feb We-Sa 11:00-21:30,Su 11:00-16:30; Mar Tu-Sa 11:00-21:30,Su 11:00-16:30; Apr-Sep 11:00-21:30; Oct 1-Nov 11 Tu-Sa 11:00-21:30,Su 11:00-16:30; Nov 12-Dec 22 Mo-Sa 11:00-21:30", "outdoor_seating": "yes", "payment:credit_cards": "yes", "phone": "+45 36309257", "ref:DK:cvr": "27961169", "ref:DK:cvr:pnummer": "1010968441", "reservation": "yes", "toilets": "yes", "website": "https://www.hansenshave.dk/", "wheelchair": "yes", "wikidata": "Q12315604"}}, {"type": "node", "id": 1799341216, "lat": 55.6711876, "lon": 12.5306595, "tags": {"amenity": "restaurant", "capacity": "200", "cuisine": "danish", "dinner": "yes", "fvst:navnelbnr": "118671", "lunch": "yes", "name": "Kr\u00f8gers Familiehave", "opening_hours": "Ma-Sa 11:30-21:00; Su 11:30-19:00", "outdoor_seating": "yes", "payment:credit_cards": "yes", "phone": "+45 36450897", "ref:DK:cvr": "29196346", "ref:DK:cvr:pnummer": "1003995290", "reservation": "yes", "toilets": "yes", "website": "https://www.kroegershave.dk/", "wheelchair": "yes"}}, {"type": "node", "id": 1799341217, "lat": 55.6714583, "lon": 12.530748, "tags": {"amenity": "restaurant", "cuisine": "danish", "delivery": "yes", "dinner": "yes", "fvst:name": "M. G. Petersens gamle Familiehave", "fvst:navnelbnr": "118336", "lunch": "yes", "name": "M.G. Petersens Familiehave", "opening_hours": "Mar 24-Sep 13 12:00-19:00; May-Sep 11:00-23:00; easter-3days-easter+1days 11:00-19:00 \"(season approximate)\"", "outdoor_seating": "yes", "payment:credit_cards": "yes", "phone": "+45 36161133", "ref:DK:cvr": "31946263", "ref:DK:cvr:pnummer": "1015030182", "reservation": "yes", "takeaway": "yes", "toilets": "yes", "website": "http://www.petersensfamiliehave.dk/", "wheelchair": "yes"}}, {"type": "node", "id": 1828989467, "lat": 55.6936028, "lon": 12.5428999, "tags": {"amenity": "restaurant", "changing_table": "no", "cuisine": "regional", "diet:vegan": "yes", "diet:vegetarian": "yes", "fvst:navnelbnr": "130793", "internet_access": "wlan", "internet_access:fee": "no", "name": "Gr\u00f8d", "opening_hours": "Mo-Fr 07:30-21:00; Sa-Su 09:00-21:00", "outdoor_seating": "yes", "phone": "+45 50585579", "ref:DK:cvr": "33862709", "ref:DK:cvr:pnummer": "1017025399", "takeaway": "yes", "website": "https://groed.com/", "wheelchair": "no"}}, {"type": "node", "id": 1830057767, "lat": 55.689591, "lon": 12.5582548, "tags": {"amenity": "restaurant", "brand": "Bindia", "cuisine": "indian", "delivery": "yes", "description": "Bindia is a chain of Indian food (Indisk Mad) Take Aways in Copenhagen. Amer Sulman is the founder & head chef of Bindia. Here, we cook certified organic Indian food (30-60%) without any additives and preservatives.", "diet:halal": "yes", "diet:meat": "yes", "diet:non-vegetarian": "yes", "diet:organic": "yes", "diet:vegan": "yes", "diet:vegetarian": "yes", "email": "office@bindia.dk", "fvst:fixme": "fvst position missing, fixed from overpassturbo/osak", "fvst:navnelbnr": "966205", "name": "Bindia Elmegade", "name:en": "Bindia Indian Food Take Away N\u00f8rrebro", "opening_hours": "Mo-Su 16:00-21:00", "outdoor_seating": "yes", "phone": "+4535378737", "ref:DK:cvr": "41226447", "ref:DK:cvr:pnummer": "1026547624", "takeaway": "yes", "website": "https://www.bindia.dk/", "wheelchair": "yes"}}, {"type": "node", "id": 1837425226, "lat": 55.6874043, "lon": 12.5467207, "tags": {"amenity": "restaurant", "cuisine": "vietnamese", "diet:vegan": "yes", "diet:vegetarian": "yes", "fvst:navnelbnr": "115811", "name": "Nha Trang", "opening_hours": "Mo-Su 17:00-22:00", "phone": "+45 32161888", "ref:DK:cvr": "31975883", "ref:DK:cvr:pnummer": "1015110585", "takeaway": "yes", "website": "http://www.nhatrang.dk/", "wheelchair": "no"}}, {"type": "node", "id": 1979662611, "lat": 55.7031203, "lon": 12.5858523, "tags": {"amenity": "restaurant", "cuisine": "sushi", "delivery": "yes", "fvst:navnelbnr": "116111", "name": "Sushi One", "opening_hours": "Mo-Sa 16:00-21:00; Su,PH 16:00-21:00", "phone": "+45 52709548", "ref:DK:cvr": "32497888", "ref:DK:cvr:pnummer": "1015645357", "smoking": "no", "takeaway": "yes", "website": "http://sushione.dk/", "wheelchair": "no"}}, {"type": "node", "id": 2064264133, "lat": 55.686718, "lon": 12.5572861, "tags": {"amenity": "restaurant", "cuisine": "thai", "fvst:navnelbnr": "116800", "name": "Ranee's", "opening_hours": "Mo-Sa 17:00-23:00", "opening_hours:kitchen": "Mo-Sa 17:00-22:00", "phone": "+45 35368505", "ref:DK:cvr": "30297474", "ref:DK:cvr:pnummer": "1013097778", "takeaway": "yes", "website": "http://ranees.dk/"}}, {"type": "node", "id": 2122105641, "lat": 55.6834694, "lon": 12.5852555, "tags": {"amenity": "restaurant", "award:michelin": "bib_gourmand", "cuisine": "international", "dinner": "yes", "email": "info@restaurantpluto.dk", "fvst:navnelbnr": "647636", "name": "Pluto", "opening_hours": "Mo-Th 17:30-24:00, Fr-Sa 17:30-02:00, Su 17:30-23:00", "opening_hours:kitchen": "Mo-Th 17:30-22:00; Fr-Sa 17:30-23:00; Su 17:30-21:30", "outdoor_seating": "yes", "payment:credit_cards": "yes", "phone": "+45 33160016", "ref:DK:cvr": "37673277", "ref:DK:cvr:pnummer": "1021414677", "reservation": "yes", "source": "Fugro (2005)", "toilets": "yes", "website": "https://restaurantpluto.dk/", "wheelchair": "limited"}}, {"type": "node", "id": 2203226138, "lat": 55.6933864, "lon": 12.5662673, "tags": {"amenity": "restaurant", "cuisine": "pizza", "fvst:navnelbnr": "516094", "name": "Sapore D'Italia", "opening_hours": "Mo-Fr 11:00-21:00; Sa 12:00-21:00; Su off", "phone": "+45 35397370", "ref:DK:cvr": "32586953", "ref:DK:cvr:pnummer": "1015717404", "takeaway": "yes", "website": "http://www.saporeditalia.dk/"}}, {"type": "node", "id": 2218199426, "lat": 55.7159674, "lon": 12.5314736, "tags": {"amenity": "restaurant", "brewery": "5 gaard;\u00d8rb\u00e6k", "contact:email": "mail@maltid.dk", "cuisine": "danish", "diet:vegetarian": "yes", "fvst:navnelbnr": "555280", "name": "M\u00e5ltid", "opening_hours": "Tu-Fr 11:00-22:00; Sa 10:00-22:00; Su 10:00-16:00 \"Kitchen closed 16:00-17:00\"", "phone": "+45 35422224", "ref:DK:cvr": "29701830", "ref:DK:cvr:pnummer": "1019077329", "takeaway": "yes", "website": "http://www.maltid.dk/", "wheelchair": "no"}}, {"type": "node", "id": 2331514862, "lat": 55.688456, "lon": 12.558808, "tags": {"amenity": "restaurant", "cuisine": "indian", "fvst:navnelbnr": "114475", "name": "Tandoori Masala", "opening_hours": "Mo-Th 17:00-22:00; Fr-Su 12:00-22:00", "ref:DK:cvr": "27973469", "ref:DK:cvr:pnummer": "1015027750", "takeaway": "yes", "website": "https://tandoori-masala.dk/", "wheelchair": "limited", "wheelchair:description": "Restauranten har ikke en tilg\u00e6nglig toilett"}}, {"type": "node", "id": 2443014719, "lat": 55.6958392, "lon": 12.5806623, "tags": {"amenity": "restaurant", "fvst:navnelbnr": "947039", "name": "Dag H.", "opening_hours": "Mo-Fr 8:00-23:00; Sa 10:00-23:00; Su 10:00-22:00", "phone": "+45 35276300", "ref:DK:cvr": "41165456", "ref:DK:cvr:pnummer": "1025562050", "website": "http://www.dagh.dk/"}}, {"type": "node", "id": 2445858333, "lat": 55.6747014, "lon": 12.5309092, "tags": {"amenity": "restaurant", "contact:email": "info@mhcph.com", "cuisine": "gourmet", "dinner": "yes", "fvst:fixme": "lat missing in FVST", "fvst:navnelbnr": "117025", "lunch": "yes", "name": "Mielcke & Hurtigkarl", "opening_hours": "Tu-Sa \"evenings\"", "outdoor_seating": "yes", "phone": "+45 38 34 84 36", "ref:DK:cvr": "31061911", "ref:DK:cvr:pnummer": "1013782799", "reservation": "yes", "toilets": "yes", "website": "http://www.mhcph.com/"}}, {"type": "node", "id": 2493545931, "lat": 55.6812097, "lon": 12.5493551, "tags": {"amenity": "restaurant", "capacity": "60", "fvst:name": "MC COMPANY", "fvst:navnelbnr": "554569", "name": "Kitchenette", "opening_hours": "Mo-We 11:00-22:00; Th-Sa 10:00-24:00; Su 10:00-18:00", "outdoor_seating": "yes", "phone": "+45 32212323", "ref:DK:cvr": "36417056", "ref:DK:cvr:pnummer": "1019840618", "source": "survey", "website": "https://kitchenette.dk/"}}, {"type": "node", "id": 2493545932, "lat": 55.6781664, "lon": 12.575025, "tags": {"amenity": "restaurant", "cuisine": "danish", "fvst:navnelbnr": "111499", "name": "K\u00f8benhavner Caf\u00e9en", "opening_hours": "11:30-22:00", "phone": "+45 33328081", "ref:DK:cvr": "13948682", "ref:DK:cvr:pnummer": "1000654645", "source": "survey", "website": "http://xn--kbenhavnercafeen-lxb.dk/"}}, {"type": "node", "id": 2508465520, "lat": 55.6776072, "lon": 12.5744986, "tags": {"amenity": "restaurant", "cuisine": "danish open faced sandwiches", "fvst:navnelbnr": "131991", "name": "Kronborg", "opening_hours": "Mo-Sa 11:00-17:00, Nov Mo-Sa 11:00-23:00, Su 11:00-17:00", "phone": "+45 33130708", "ref:DK:cvr": "11970893", "ref:DK:cvr:pnummer": "1017129046", "website": "http://restaurantkronborg.dk", "wheelchair": "no"}}, {"type": "node", "id": 2535255114, "lat": 55.6742673, "lon": 12.5666731}, {"type": "node", "id": 2535255122, "lat": 55.6742891, "lon": 12.566966}, {"type": "node", "id": 2535255124, "lat": 55.6742988, "lon": 12.5669138, "tags": {"entrance": "main"}}, {"type": "node", "id": 2535255126, "lat": 55.6743043, "lon": 12.5669598}, {"type": "node", "id": 2535255128, "lat": 55.6743043, "lon": 12.5670838}, {"type": "node", "id": 2535255138, "lat": 55.6743374, "lon": 12.5666446}, {"type": "node", "id": 2535255140, "lat": 55.6743441, "lon": 12.5670676}, {"type": "node", "id": 2535255142, "lat": 55.6743445, "lon": 12.5667006}, {"type": "node", "id": 2535255148, "lat": 55.674391, "lon": 12.5666966}, {"type": "node", "id": 2535255151, "lat": 55.6744025, "lon": 12.5667317}, {"type": "node", "id": 2535255162, "lat": 55.6744201, "lon": 12.5670376}, {"type": "node", "id": 2645465416, "lat": 55.6806487, "lon": 12.580557, "tags": {"amenity": "restaurant", "fvst:navnelbnr": "530370", "name": "Pal\u00e6o Pilestr\u00e6de", "opening_hours": "Mo-Fr 08:00-20:00; Sa 09:00-19:00; Su 19:00-17:00", "payment:bitcoin": "yes", "phone": "+45 73 70 97 01", "ref:DK:cvr": "34693889", "ref:DK:cvr:pnummer": "1017890235", "takeaway": "yes", "website": "https://www.palaeo.com/", "wheelchair": "no"}}, {"type": "node", "id": 2713744916, "lat": 55.6804417, "lon": 12.5847233, "tags": {"amenity": "restaurant", "award:michelin": "1", "cuisine": "regional", "email": "marchal@dangleterre.com", "fvst:navnelbnr": "522445", "name": "Marchal", "opening_hours": "Mo-Th 07:30-10:00,12:00-16:30,18:00-22:00; Fr-Sa 07:30-10:00,12:00-16:30,18:00-23:00; Su 07:30-10:00,12:00-16:30,18:00-22:00", "operator": "Hotel DAngleterre", "payment:credit_cards": "yes", "phone": "+45 33120094", "ref:DK:cvr": "33368127", "ref:DK:cvr:pnummer": "1016571446", "reservation": "yes", "stars": "1", "website": "http://www.marchal.dk/", "wikidata": "Q23010101", "wikipedia": "da:Marchal"}}, {"type": "node", "id": 2910703868, "lat": 55.6762303, "lon": 12.5804107, "tags": {"amenity": "restaurant", "cuisine": "danish", "fvst:navnelbnr": "915809", "internet_access": "wlan", "internet_access:fee": "no", "name": "Restaurant T\u00e5rnet", "note": "Guest have to pass the parliament securitycheck which can take 15 minutes.", "opening_hours": "tu-su 11:30-16:00,18:00-23:00", "operator": "Meyers", "phone": "+4527903061", "ref:DK:cvr": "26631521", "ref:DK:cvr:pnummer": "1025025128", "smoking": "no", "takeaway": "no", "website": "https://taarnet.dk", "wheelchair": "yes"}}, {"type": "node", "id": 2935972998, "lat": 55.7007217, "lon": 12.5793757, "tags": {"amenity": "restaurant", "branch": "\u00d8sterbro", "cuisine": "sushi", "fvst:navnelbnr": "114585", "name": "Letz Sushi", "opening_hours": "11:30-21:00; Su 16:00-21:00", "phone": "+45 35251918", "ref:DK:cvr": "10107423", "ref:DK:cvr:pnummer": "1009641803", "takeaway": "yes", "website": "https://letzsushi.dk/restauranter/osterbro/", "wheelchair": "limited"}}, {"type": "node", "id": 2939807211, "lat": 55.7147415, "lon": 12.5859268}, {"type": "node", "id": 2939807212, "lat": 55.7148386, "lon": 12.5862466}, {"type": "node", "id": 2939807213, "lat": 55.7147838, "lon": 12.5862986}, {"type": "node", "id": 2939807214, "lat": 55.7146837, "lon": 12.5859798}, {"type": "node", "id": 2939807215, "lat": 55.7148, "lon": 12.5862822}, {"type": "node", "id": 3063139305, "lat": 55.6733737, "lon": 12.5671385, "tags": {"amenity": "restaurant", "cuisine": "barbecue", "fvst:navnelbnr": "113569", "name": "Promenaden", "opening_hours": "12:00-17:00,17:00-18:30,18:45-20:30,20:45+", "phone": "+45 33750770", "seasonal": "summer", "website": "http://www.promenaden-tivoli.dk/"}}, {"type": "node", "id": 3190724418, "lat": 55.6743717, "lon": 12.5682093}, {"type": "node", "id": 3190724432, "lat": 55.674487, "lon": 12.5683735}, {"type": "node", "id": 3190724436, "lat": 55.6745625, "lon": 12.5682985}, {"type": "node", "id": 3245847281, "lat": 55.6718168, "lon": 12.5576346, "tags": {"amenity": "restaurant", "cuisine": "tapas", "fvst:name": "Meson Espana", "fvst:navnelbnr": "113059", "name": "Mes\u00f3n Espa\u00f1a", "opening_hours": "Mo-Sa 17:00-24:00", "phone": "+45 33 31 19 04", "ref:DK:cvr": "27043496", "ref:DK:cvr:pnummer": "1009734607", "takeaway": "yes", "website": "https://www.mesonespana.dk", "wheelchair": "no"}}, {"type": "node", "id": 3277677990, "lat": 55.6791194, "lon": 12.5251614, "tags": {"amenity": "restaurant", "cuisine": "international", "fvst:navnelbnr": "760767", "name": "Frederiks Have", "opening_hours": "Mo-Sa 12:00-14:30+,17:30-21:30+", "phone": "+45 38883335", "ref:DK:cvr": "35862986", "ref:DK:cvr:pnummer": "1019426307", "website": "http://frederikshave.dk/en/"}}, {"type": "node", "id": 3404342225, "lat": 55.6957451, "lon": 12.5795519, "tags": {"amenity": "restaurant", "cuisine": "italian", "fvst:navnelbnr": "118813", "name": "Famo Metro", "note": "Opening hours are for last seating", "opening_hours": "Mo-Sa 18:00-22:00", "phone": "+45 35556630", "ref:DK:cvr": "32888887", "ref:DK:cvr:pnummer": "1016023260", "website": "http://famo.dk/"}}, {"type": "node", "id": 3412208354, "lat": 55.6762611, "lon": 12.5414017, "tags": {"amenity": "restaurant", "cuisine": "french", "delivery": "no", "fvst:name": "Sanc Souci/ B & W INVESTMENT ApS", "fvst:navnelbnr": "916177", "name": "Sans Souci", "opening_hours": "Mo-Sa 12:00-16:30,17:30-21:30", "opening_hours:bar": "21:30-24:00", "phone": "+45 33217463", "ref:DK:cvr": "34474400", "ref:DK:cvr:pnummer": "1017601764", "smoking": "outside", "takeaway": "no", "website": "http://www.sanssouci.dk/", "wikidata": "Q63457230"}}, {"type": "node", "id": 3495646186, "lat": 55.6743994, "lon": 12.5767875, "tags": {"amenity": "restaurant", "cuisine": "sm\u00f8rrebr\u00f8d", "fvst:navnelbnr": "119202", "name": "Kanal Caf\u00e9en", "opening_hours": "Mo-Fr 11:30-17:00; Sa 11:30-15:00", "phone": "+45 31115770", "ref:DK:cvr": "31280338", "ref:DK:cvr:pnummer": "1014251916", "source": "survey", "website": "https://www.kanalcafeen.dk/", "wheelchair": "no", "wikidata": "Q21855761"}}, {"type": "node", "id": 3496562903, "lat": 55.6838775, "lon": 12.5691044, "tags": {"amenity": "restaurant", "fvst:navnelbnr": "504353", "name": "Pal\u00e6o Torvehal 1 Stade E1-F1", "opening_hours": "Mo-Fr 08:00-20:00; Sa 10:00-19:00; Su 11:00-18:00", "payment:bitcoin": "no", "phone": "+45 33986969", "ref:DK:cvr": "34079323", "ref:DK:cvr:pnummer": "1017327689", "website": "http://www.palaeo.dk", "wheelchair": "yes"}}, {"type": "node", "id": 3659148934, "lat": 55.692219, "lon": 12.555909, "tags": {"amenity": "restaurant", "cuisine": "italian;organic", "fvst:name": "B\u00e6st & Mirabelle Guldbergsgade", "fvst:navnelbnr": "549285", "internet_access": "wlan", "name": "B\u00e6st", "opening_hours": "17:00-22:30", "outdoor_seating": "yes", "phone": "+45 35350463", "ref:DK:cvr": "36062193", "ref:DK:cvr:pnummer": "1019763508", "takeaway": "no", "website": "https://baest.dk/", "wheelchair": "yes"}}, {"type": "node", "id": 3703665155, "lat": 55.6797839, "lon": 12.5762275, "tags": {"amenity": "restaurant", "capacity": "110", "contact:instagram": "simpleraw", "cuisine": "raw", "diet:vegan": "only", "email": "info@simpleraw.dk", "facebook": "https://www.facebook.com/simpleRAW", "fvst:navnelbnr": "567567", "name": "SimpleRAW Gr\u00e5br\u00f8dre Torv", "opening_hours": "Mo-Sa 10:00-22:00; Su 10:00-21:00", "outdoor_seating": "yes", "phone": "+45 35 35 30 05", "ref:DK:cvr": "36715782", "ref:DK:cvr:pnummer": "1020499261", "takeaway": "yes", "website": "https://www.simpleraw.dk"}}, {"type": "node", "id": 3714129425, "lat": 55.6965107, "lon": 12.5510082, "tags": {"amenity": "restaurant", "cuisine": "sushi", "fvst:navnelbnr": "509381", "name": "Takii", "opening_hours": "Mo-Su 13:00-22:00", "outdoor_seating": "no", "phone": "+45 38 86 66 66", "ref:DK:cvr": "34209138", "ref:DK:cvr:pnummer": "1017402303", "takeaway": "yes", "website": "https://www.takii.dk/", "wheelchair": "no"}}, {"type": "node", "id": 3726598018, "lat": 55.6995339, "lon": 12.5780077, "tags": {"alt_name": "\u00d8sterbro Original Burger Restaurant", "amenity": "restaurant", "cuisine": "burger", "fvst:navnelbnr": "569145", "name": "\u00d8sterbros Originale Burgerrestaurant", "opening_hours": "Mo-Su 12:00-22:00", "phone": "+45 3311 3304", "ref:DK:cvr": "36738197", "ref:DK:cvr:pnummer": "1020387730", "takeaway": "yes", "website": "http://oeb-burgers.dk/", "wheelchair": "no"}}, {"type": "node", "id": 3734943923, "lat": 55.6724145, "lon": 12.5845011, "tags": {"amenity": "restaurant", "award:michelin": "the_plate_michelin", "capacity": "120", "contact:instagram": "https://www.instagram.com/explore/locations/299158829/no2/", "cuisine": "nordic", "description": "opening 6.6 this year at 6 pm.", "dinner": "yes", "facebook": "https://www.facebook.com/no.2restaurantaoc/", "fvst:fixme": "wrong location in FVST", "fvst:navnelbnr": "545106", "internet_access": "wlan", "lunch": "yes", "name": "No. 2", "note": "Sibling of the gourmet restaurant AOC Opening hours are for kitchen", "opening_hours": "mo-fr 12:00-14:00; mo-sa 17:30-22:00", "outdoor_seating": "yes", "phone": "+45 33111168", "ref:DK:cvr": "29817189", "ref:DK:cvr:pnummer": "1019326752", "reservation": "yes", "toilets": "yes", "website": "https://nummer2.dk"}}, {"type": "node", "id": 3735046232, "lat": 55.6827437, "lon": 12.5563467, "tags": {"amenity": "restaurant", "description": "Indisk inspireret vegetar take-away", "diet:vegan": "yes", "diet:vegetarian": "yes", "email": "info@govinda.dk", "fvst:name": "Govinda Vegetar Take Away", "fvst:navnelbnr": "954464", "name": "Govinda", "opening_hours": "Mo-Fr 16:00-20:30", "phone": "+45 32 14 03 62", "ref:DK:cvr": "34357870", "ref:DK:cvr:pnummer": "1017533246", "takeaway": "yes", "website": "http://www.govinda.dk"}}, {"type": "node", "id": 3741930018, "lat": 55.703444, "lon": 12.5477709, "tags": {"amenity": "restaurant", "check_date": "2022-03-19", "craft": "caterer", "cuisine": "nepalese", "delivery": "yes", "fvst:navnelbnr": "561003", "name": "Nepali Bhancha", "note": "Opening hours are for last seating", "opening_hours": "16:00-21:30", "phone": "+45 35858595", "ref:DK:cvr": "39759063", "ref:DK:cvr:pnummer": "1023836250", "shop": "craft", "takeaway": "yes", "website": "https://nepalibhancha.dk/"}}, {"type": "node", "id": 3762386665, "lat": 55.6809171, "lon": 12.5844498, "tags": {"amenity": "restaurant", "fvst:navnelbnr": "121555", "name": "Fishmarket", "opening_hours": "Mo-Th 11:00-24:00; Fr-Sa 11:00-01:00", "opening_hours:kitchen": "Mo-Sa 11:30-15:00, 17:30-22:30", "ref:DK:cvr": "33248733", "ref:DK:cvr:pnummer": "1016380918", "website": "http://fishmarket.dk/", "wheelchair": "limited"}}, {"type": "node", "id": 3762413207, "lat": 55.6832614, "lon": 12.5844697, "tags": {"amenity": "restaurant", "cuisine": "sushi", "fvst:navnelbnr": "553749", "name": "Sticks'n'Sushi Borgergade", "opening_hours": "Su-Th 11:00-23:00; Fr-Sa 11:00-24:00", "opening_hours:kitchen": "Su-Th 11:00-22:00; Fr-Sa 11:00-23:00", "outdoor_seating": "yes", "phone": "+45 33118811", "takeaway": "yes", "website": "http://www.sushi.dk/restauranter/borgergade.html", "wheelchair": "yes"}}, {"type": "node", "id": 3763659790, "lat": 55.6800752, "lon": 12.5764486, "tags": {"alt_name": "THE ITALIAN CORNER", "amenity": "restaurant", "cuisine": "italian", "fvst:navnelbnr": "114225", "name": "Trattoria Italiana", "opening_hours": "11:00-23:00", "phone": "+45 33121231", "ref:DK:cvr": "26657776", "ref:DK:cvr:pnummer": "1009167796"}}, {"type": "node", "id": 3763675171, "lat": 55.6777981, "lon": 12.5788252, "tags": {"amenity": "restaurant", "cuisine": "burger", "fvst:navnelbnr": "523908", "name": "Cocks & Cows", "opening_hours": "Su-Th 11:30-21:30; Fr-Sa 11:30-22:30", "ref:DK:cvr": "32439292", "ref:DK:cvr:pnummer": "1017352675", "takeaway": "yes", "toilets:wheelchair": "no", "website": "https://cocksandcows.dk/", "wheelchair": "no"}}, {"type": "node", "id": 3766364959, "lat": 55.6869918, "lon": 12.5320044, "tags": {"amenity": "restaurant", "cuisine": "italian", "fvst:navnelbnr": "115761", "name": "Da Claudio", "opening_hours": "Mo-Sa 17:00-24:00; Su 17:00-23:00", "opening_hours:kitchen": "Mo-Sa 17:00-23:00; Su 17:00-21:00", "phone": "+45 38872616", "ref:DK:cvr": "30066642", "ref:DK:cvr:pnummer": "1013361742", "website": "https://www.da-claudio.dk/"}}, {"type": "node", "id": 3766558734, "lat": 55.6849944, "lon": 12.5702547, "tags": {"amenity": "restaurant", "fvst:navnelbnr": "635058", "name": "Cafe og \u00d8lhalle \"1892\"", "opening_hours": "Mo-Sa 11:00-17:00; Nov-Dec 11:00-17:00", "phone": "+45 33330018", "ref:DK:cvr": "30743199", "ref:DK:cvr:pnummer": "1021177713", "website": "https://www.arbejdermuseet.dk/index.php?option=com_content&view=article&id=89&Itemid=42"}}, {"type": "node", "id": 3770167590, "lat": 55.6712966, "lon": 12.5613942, "tags": {"alt_name": "Bento restaurant & cocktail bar", "amenity": "restaurant", "cuisine": "japanese", "fvst:navnelbnr": "118877", "name": "Uki Bento", "opening_hours": "Tu-Su 11:00-14:00,17:00-23:00", "phone": "+45 88714646", "ref:DK:cvr": "29260877", "ref:DK:cvr:pnummer": "1014824843", "website": "http://uki.dk/"}}, {"type": "node", "id": 3771908693, "lat": 55.6787142, "lon": 12.5665053, "tags": {"amenity": "restaurant", "cuisine": "burger", "fvst:navnelbnr": "707813", "name": "Cock's & Cows SP34", "opening_hours": "Su-Th 12:00-21:30; Fr-Sa 12:00-22:30", "phone": "+45 69696000", "ref:DK:cvr": "32439292", "ref:DK:cvr:pnummer": "1022052582", "website": "https://cocksandcows.dk/"}}, {"type": "node", "id": 3771912217, "lat": 55.676067, "lon": 12.566369, "tags": {"alt_name": "Guru.dk", "amenity": "restaurant", "cuisine": "indian", "fvst:fixme": "fvst:no_pos", "fvst:navnelbnr": "937774", "name": "Guru", "phone": "+45 70702020", "ref:DK:cvr": "41014970", "ref:DK:cvr:pnummer": "1025341178", "takeaway": "yes", "website": "http://www.guru.dk/"}}, {"type": "node", "id": 3771999057, "lat": 55.6885295, "lon": 12.5419871, "tags": {"amenity": "restaurant", "cuisine": "cantonese", "fvst:navnelbnr": "507166", "name": "Fu Wa", "opening_hours": "We-Mo 16:00-22:00", "phone": "+45 38191740", "ref:DK:cvr": "34389004", "ref:DK:cvr:pnummer": "1017595586", "website": "http://www.fuwa.dk/"}}, {"type": "node", "id": 3772666357, "lat": 55.6864878, "lon": 12.5584645, "tags": {"alt_name": "Ahaaa Arabic Cuisine", "amenity": "restaurant", "cuisine": "arab", "fvst:navnelbnr": "780867", "name": "Ahaaa Det Arabiske Madsted", "name:en": "Ahaaa Arabic Cuisine", "phone": "+45 35390085", "ref:DK:cvr": "37287105", "ref:DK:cvr:pnummer": "1022281298", "website": "http://ahaaa.dk/"}}, {"type": "node", "id": 3772681792, "lat": 55.6776029, "lon": 12.5823423, "tags": {"amenity": "restaurant", "cuisine": "steak", "dinner": "yes", "fvst:navnelbnr": "565772", "name": "K\u00f6D", "opening_hours": "su-th 17:00-21:00; fr-sa 17:00-22:00", "payment:credit_cards": "yes", "phone": "+45 69151519", "ref:DK:cvr": "36725222", "ref:DK:cvr:pnummer": "1020352457", "reservation": "yes", "toilets": "yes", "website": "http://koedkbh.dk/"}}, {"type": "node", "id": 3773083772, "lat": 55.6790273, "lon": 12.580426, "tags": {"alt_name": "Le bistro", "amenity": "restaurant", "cuisine": "fusion", "fvst:navnelbnr": "132175", "name": "Le Diamant", "opening_hours": "10:00-23:00", "phone": "+45 33938085 -", "ref:DK:cvr": "33880685", "ref:DK:cvr:pnummer": "1017102288", "takeaway": "yes", "website": "http://www.lediamant.dk/", "wheelchair": "limited"}}, {"type": "node", "id": 3773106178, "lat": 55.6834866, "lon": 12.577275, "tags": {"amenity": "restaurant", "cuisine": "italian", "fvst:navnelbnr": "112701", "name": "L'Anfora", "opening_hours": "Mo-Th 12:00-23:00; Fr-Sa 12:00-24:00; Su 16:00-23:00", "phone": "+45 33321817", "ref:DK:cvr": "25686608", "ref:DK:cvr:pnummer": "1003755730", "website": "http://lanfora.dk/"}}, {"type": "node", "id": 3773126985, "lat": 55.6736846, "lon": 12.5741057, "tags": {"amenity": "restaurant", "cuisine": "danish", "dinner": "yes", "facebook": "https://www.facebook.com/Restaurant-Karla-740579682691047/", "fvst:navnelbnr": "555718", "lunch": "yes", "name": "Restaurant Karla", "opening_hours": "11:30-22:00", "outdoor_seating": "yes", "payment:credit_cards": "yes", "phone": "+45 33127025", "ref:DK:cvr": "36414057", "ref:DK:cvr:pnummer": "1019830868", "reservation": "yes", "takeaway": "yes", "toilets": "yes", "website": "http://www.karla.nu/"}}, {"type": "node", "id": 3773228831, "lat": 55.671218, "lon": 12.574053, "tags": {"amenity": "restaurant", "award:michelin": "the_plate_michelin", "cuisine": "italian", "dinner": "yes", "facebook": "https://www.facebook.com/lenotecadimrbrunello/", "fvst:navnelbnr": "566646", "name": "L'Enoteca di Mr. Brunello", "opening_hours": "tu-sa 18:00-24:00", "payment:credit_cards": "yes", "phone": "+45 53860314", "ref:DK:cvr": "36556617", "ref:DK:cvr:pnummer": "1020202242", "reservation": "yes", "toilets": "yes", "website": "http://lenoteca.dk/"}}, {"type": "node", "id": 3792233015, "lat": 55.6876013, "lon": 12.5626665, "tags": {"amenity": "restaurant", "cuisine": "latin_american", "fvst:navnelbnr": "544733", "name": "Roberta", "opening_hours": "17:00-24:00", "opening_hours:kitchen": "17:00-22:00", "operator": "Madklubben", "phone": "+45 38414166", "ref:DK:cvr": "35471898", "ref:DK:cvr:pnummer": "1019108607", "website": "https://madklubben.dk/restauranter/roberta-noerrebro/", "wheelchair": "yes"}}, {"type": "node", "id": 3799311752, "lat": 55.6728827, "lon": 12.5744527, "tags": {"amenity": "restaurant", "capacity": "310", "cuisine": "buffet", "fvst:navnelbnr": "560767", "name": "Restaurant Flammen K\u00f8benhavn", "opening_hours": "16:45-22:00; Th 16:45-22:30; Fr,Sa 16:45-23:00", "phone": "+45 44 22 33 53", "ref:DK:cvr": "35894039", "ref:DK:cvr:pnummer": "1019738015", "website": "https://www.restaurant-flammen.dk/kobenhavn/"}}, {"type": "node", "id": 3799572491, "lat": 55.6778099, "lon": 12.570144, "tags": {"amenity": "restaurant", "cuisine": "danish", "fvst:navnelbnr": "112350", "name": "Husmanns Vinstue", "opening_hours": "Mo-Fr 11:30-16:00; Sa 12:00-16:00; PH off; easter-1days off", "phone": "+45 33115886", "ref:DK:cvr": "28839499", "ref:DK:cvr:pnummer": "1001487738", "website": "http://www.husmannsvinstue.dk/", "wikidata": "Q63457070"}}, {"type": "node", "id": 3799815317, "lat": 55.7043889, "lon": 12.5869386, "tags": {"amenity": "restaurant", "cuisine": "indian", "diet:vegan": "yes", "diet:vegetarian": "yes", "fvst:navnelbnr": "116600", "indoor_seating": "yes", "name": "Indian Maharaja", "opening_hours": "17:00-23:00", "outdoor_seating": "no", "phone": "+45 35437173", "ref:DK:cvr": "32101267", "ref:DK:cvr:pnummer": "1015216928", "smoking": "no", "website": "http://restaurantmaharaja.dk/", "wheelchair": "limited"}}, {"type": "node", "id": 3849745310, "lat": 55.6724308, "lon": 12.549453, "tags": {"amenity": "restaurant", "cuisine": "japanese", "fvst:navnelbnr": "112348", "name": "Restaurant Tokyo", "opening_hours": "Mo-Sa 17:00-23:00; Su off", "ref:DK:cvr": "87491617", "ref:DK:cvr:pnummer": "1002772439", "wheelchair": "no"}}, {"type": "node", "id": 3872240462, "lat": 55.6989421, "lon": 12.5874463, "tags": {"amenity": "restaurant", "cuisine": "indian", "fvst:navnelbnr": "119511", "name": "Kashmir", "opening_hours": "17:00-21:00", "phone": "+45 35434373", "ref:DK:cvr": "33545649", "ref:DK:cvr:pnummer": "1016785160", "website": "https://www.kashmir-restaurant.dk/"}}, {"type": "node", "id": 3872240467, "lat": 55.6801828, "lon": 12.5742858, "tags": {"amenity": "restaurant", "check_date": "2021-10-06", "cuisine": "steak_house", "delivery": "yes", "diet:vegan": "yes", "diet:vegetarian": "yes", "fvst:name": "Riz Raz", "fvst:navnelbnr": "1216656", "name": "Riz Raz", "opening_hours": "Mo-Su 11:30-24:00", "phone": "+45 33323345", "ref:DK:cvr": "13893896", "ref:DK:cvr:pnummer": "1009922721", "smoking": "no", "takeaway": "yes", "website": "https://rizraz.dk/"}}, {"type": "node", "id": 3887005213, "lat": 55.6787557, "lon": 12.5840367, "tags": {"amenity": "restaurant", "award:michelin": "1", "cuisine": "gourmet", "fvst:name": "RESTAURANT KONG HANS K\u00c6LDER", "fvst:navnelbnr": "733019", "name": "Kong Hans K\u00e6lder", "opening_hours": "Tu-Sa 18:00-24:00", "payment:credit_cards": "yes", "phone": "+45 33116868", "ref:DK:cvr": "39125943", "ref:DK:cvr:pnummer": "1023114581", "reservation": "yes", "stars": "1", "website": "http://konghans.dk", "wikidata": "Q6429123"}}, {"type": "node", "id": 3887006773, "lat": 55.6814081, "lon": 12.5850751, "tags": {"amenity": "restaurant", "cuisine": "burger", "fvst:navnelbnr": "541653", "name": "Bistro Royal", "opening_hours": "Mo-Fr 08:00-24:00; Sa 12:00-24:00; Su 12:00-23:00", "operator": "madklubben", "ref:DK:cvr": "34877742", "ref:DK:cvr:pnummer": "1019066599", "website": "http://www.madklubben.dk/bistro-royal/menu/", "wheelchair": "no"}}, {"type": "node", "id": 3907723431, "lat": 55.6859501, "lon": 12.5528263, "tags": {"amenity": "restaurant", "cuisine": "thai", "email": "info@ayuttaya.net", "fvst:navnelbnr": "907115", "name": "Restaurant Ayuttaya", "opening_hours": "12:00-23:00", "phone": "+45 35373868", "ref:DK:cvr": "40219633", "ref:DK:cvr:pnummer": "1024361876", "website": "https://www.ayuttaya.dk/"}}, {"type": "node", "id": 3907723432, "lat": 55.6878253, "lon": 12.5540103, "tags": {"amenity": "restaurant", "branch": "N\u00f8rrebro", "cuisine": "japanese", "fvst:navnelbnr": "576596", "internet_access": "wlan", "name": "Ramen To Bi\u00edru", "opening_hours": "Mo-Th 12:00-21:00; Fr-Sa 12:00-24:00; Su 12:00-20:00", "operator": "Mikkeler", "phone": "+45 50530222", "ref:DK:cvr": "37002992", "ref:DK:cvr:pnummer": "1020657665", "source": "Bing", "website": "http://mikkeller.dk/location/ramen-to-biiru-2/"}}, {"type": "node", "id": 3921256682, "lat": 55.6813283, "lon": 12.5860369, "tags": {"amenity": "restaurant", "cuisine": "french", "fvst:navnelbnr": "527170", "internet_access": "wlan", "internet_access:fee": "no", "name": "Ravage", "opening_hours": "Su-Th 10:00-24:00; Fr-Sa 10:00-02:00", "outdoor_seating": "yes", "payment:credit_cards": "yes", "phone": "+45 33325151", "ref:DK:cvr": "35143106", "ref:DK:cvr:pnummer": "1018389785", "reservation": "yes", "toilets": "yes", "website": "http://ravage.dk/", "wheelchair": "yes"}}, {"type": "node", "id": 3932209403, "lat": 55.6743178, "lon": 12.5620654, "tags": {"amenity": "restaurant", "cuisine": "chinese", "fvst:fixme": "wrong location in FVST", "fvst:navnelbnr": "531694", "name": "China Palace", "opening_hours": "12:00-23:00", "phone": "+45 33328056", "ref:DK:cvr": "34937605", "ref:DK:cvr:pnummer": "1018737570", "website": "http://chinapalace-cph.dk/"}}, {"type": "node", "id": 3988222459, "lat": 55.7157199, "lon": 12.5850089, "tags": {"amenity": "restaurant", "fvst:navnelbnr": "112656", "name": "Restaurant Strandberg", "ref:DK:cvr": "26926475", "ref:DK:cvr:pnummer": "1009598606"}}, {"type": "node", "id": 3989110696, "lat": 55.713946, "lon": 12.535047, "tags": {"alt_name": "Cantinos Steakhouse", "amenity": "restaurant", "cuisine": "steak", "fvst:navnelbnr": "762659", "name": "Cantinos", "opening_hours": "PH,Mo-Su 10:00-22:00", "ref:DK:cvr": "39719711", "ref:DK:cvr:pnummer": "1023933434"}}, {"type": "node", "id": 3997565314, "lat": 55.708139, "lon": 12.5578702, "tags": {"alt_name": "Yu Shan Fang", "amenity": "restaurant", "cuisine": "chinese", "fvst:name": "Yu Shan Fang", "fvst:navnelbnr": "561411", "name": "Royal Cuisine", "opening_hours": "Mo-Su 14:00-22:00", "phone": "+45 72145284", "ref:DK:cvr": "32325890", "ref:DK:cvr:pnummer": "1018902954", "website": "https://royalcuisine.dk/"}}, {"type": "node", "id": 3997565316, "lat": 55.7096519, "lon": 12.5781178, "tags": {"amenity": "restaurant", "check_date:opening_hours": "2021-07-26", "cuisine": "thai", "diet:vegan": "no", "diet:vegetarian": "yes", "fvst:navnelbnr": "500038", "name": "Duang Jai", "opening_hours": "Mo-Sa 16:30-23:00; Su 16:30-22:00", "phone": "+45 39293983", "ref:DK:cvr": "32586414", "ref:DK:cvr:pnummer": "1015716742", "website": "http://duangjai.dk/", "wheelchair": "no"}}, {"type": "node", "id": 4001229093, "lat": 55.6768048, "lon": 12.5394373, "tags": {"amenity": "restaurant", "branch": "Gl. Kongevej", "brand": "Bindia", "cuisine": "indian;chicken;asian;sushi", "delivery": "yes", "description": "Bindia is a chain of Indian food (Indisk Mad) Take-Aways in Copenhagen for last many years. Amer Sulman is the founder & head chef of Bindia. Here, we cook certified organic Indian food (30-60%) without any additives and preservatives.", "diet:halal": "yes", "diet:meat": "yes", "diet:organic": "yes", "diet:vegan": "yes", "diet:vegetarian": "yes", "email": "office@bindia.dk", "fvst:name": "Bindia II", "fvst:navnelbnr": "966201", "name": "Bindia", "name:en": "Bindia", "opening_hours": "Mo-Su 16:00-21:00", "phone": "+45 33318376", "ref:DK:cvr": "41162597", "ref:DK:cvr:pnummer": "1026547586", "takeaway": "yes", "website": "https://www.bindia.dk/", "wheelchair": "yes"}}, {"type": "node", "id": 4004994247, "lat": 55.6783936, "lon": 12.5320979, "tags": {"amenity": "restaurant", "fvst:navnelbnr": "118343", "name": "Restaurant Frksbrg", "opening_hours": "11:30-15:30,17:00-21:30; Su-Mo 11:30-16:00", "phone": "+45 3311 0313", "website": "http://belisbar.dk/"}}, {"type": "node", "id": 4005983003, "lat": 55.6813932, "lon": 12.5639983, "tags": {"amenity": "restaurant", "cuisine": "sm\u00f8rrebr\u00f8d", "fvst:navnelbnr": "112360", "name": "Turesen", "opening_hours": "12:00-16:00; Su-Mo off", "phone": "+45 33150536", "ref:DK:cvr": "25371933", "ref:DK:cvr:pnummer": "1007656145", "website": "http://www.turesen.dk/"}}, {"type": "node", "id": 4005983004, "lat": 55.6813469, "lon": 12.5645739, "tags": {"amenity": "restaurant", "cuisine": "japanese", "fvst:navnelbnr": "548435", "name": "Uma", "opening_hours": "Mo-Sa 16:00-22:00; Su off", "ref:DK:cvr": "36030496", "ref:DK:cvr:pnummer": "1019522748", "takeaway": "yes", "website": "http://uma.dk/"}}, {"type": "node", "id": 4006260942, "lat": 55.6738208, "lon": 12.5295951, "tags": {"amenity": "restaurant", "fvst:navnelbnr": "115394", "name": "Josty", "ref:DK:cvr": "29924791", "ref:DK:cvr:pnummer": "1012631053", "website": "http://josty.dk/"}}, {"type": "node", "id": 4006260957, "lat": 55.69691, "lon": 12.53588, "tags": {"amenity": "restaurant", "fvst:navnelbnr": "515272", "name": "Danafrika", "phone": "+45 38199956", "ref:DK:cvr": "25304640", "ref:DK:cvr:pnummer": "1007537685", "takeaway": "yes", "toilets:wheelchair": "no", "website": "http://restaurant.danafrika.dk/", "wheelchair": "no"}}, {"type": "node", "id": 4007452282, "lat": 55.6809709, "lon": 12.5332699, "tags": {"amenity": "restaurant", "cuisine": "asian", "fvst:navnelbnr": "548529", "name": "Wagamama Frederiksberg", "opening_hours": "11:30-21:00; Fr-Sa 11:30-22:00", "ref:DK:cvr": "10404916", "ref:DK:cvr:pnummer": "1019479249", "takeaway": "yes", "website": "https://www.wagamama.dk/restauranter/frederiksberg", "wheelchair": "no"}}, {"type": "node", "id": 4007452283, "lat": 55.6807476, "lon": 12.5537813, "tags": {"amenity": "restaurant", "cuisine": "italian", "fvst:fixme": "fvst:no_pos", "fvst:navnelbnr": "123696", "name": "Restaurant Il Grappolo Blu Divina Patria", "opening_hours": "18:00-24:00; Su-Mo off", "phone": "+45 33115720", "ref:DK:cvr": "33146787", "ref:DK:cvr:pnummer": "1016276126", "website": "http://www.ilgrappoloblu.com/"}}, {"type": "node", "id": 4007480896, "lat": 55.679345, "lon": 12.554631, "tags": {"amenity": "restaurant", "award:michelin": "bib_gourmand", "cuisine": "french", "facebook": "https://www.facebook.com/restaurantanarki/", "fvst:navnelbnr": "574286", "name": "Restaurant Anarki", "opening_hours": "17:30-24:00; Su-Mo off", "payment:credit_cards": "yes", "phone": "+45 22131134", "ref:DK:cvr": "37080667", "ref:DK:cvr:pnummer": "1020721312", "reservation": "yes", "toilets": "yes", "website": "http://restaurant-anarki.dk/anarki/"}}, {"type": "node", "id": 4007924194, "lat": 55.6871785, "lon": 12.5299759, "tags": {"amenity": "restaurant", "cuisine": "italian", "fvst:name": "GASTRONOMIA CANDIDO", "fvst:navnelbnr": "109636", "name": "Candido", "opening_hours": "13:00-23:00; Sa 11:00-23:00; Tu off", "ref:DK:cvr": "10808189", "ref:DK:cvr:pnummer": "1000135488"}}, {"type": "node", "id": 4007924196, "lat": 55.6858794, "lon": 12.5366965, "tags": {"amenity": "restaurant", "cuisine": "indian", "fvst:fixme": "fvst position missing, fixed from overpassturbo/osak", "fvst:name": "SOUTH INDIAN Chettinad Cuisine", "fvst:navnelbnr": "959744", "name": "South Indian", "opening_hours": "17:00-23:00; Sa-Su 12:00-23:00; Mo off", "phone": "+45 81919181", "ref:DK:cvr": "41005386", "ref:DK:cvr:pnummer": "1026086023", "takeaway": "yes", "website": "https://southindian.dk/"}}, {"type": "node", "id": 4007932772, "lat": 55.689275, "lon": 12.5630017, "tags": {"amenity": "restaurant", "fvst:name": "20A Rhone i Ravnsborggade", "fvst:navnelbnr": "535805", "name": "20 a", "opening_hours": "17:00-24:00; Sa 13:00-24:00; Su off", "ref:DK:cvr": "35523464", "ref:DK:cvr:pnummer": "1018863657", "website": "https://www.20a.dk/", "wheelchair": "no"}},